city_id,city_name,state,lat,lon
1,DOTHAN,AL,31.23,-85.4
2,BOAZ,AL,34.2,-86.15
3,FLORENCE,AL,34.82,-87.66
4,BIRMINGHAM,AL,33.52,-86.79
5,ALABASTER,AL,33.22,-86.82
6,MONTGOMERY,AL,32.35,-86.28
7,OPELIKA,AL,32.65,-85.37
8,CULLMAN,AL,34.17,-86.83
9,HUNTSVILLE,AL,34.7,-86.62
10,GADSDEN,AL,34.01,-86.01
11,ANNISTON,AL,33.66,-85.81
12,DECATUR,AL,34.57,-86.98
13,MOBILE,AL,30.68,-88.04
14,TUSCALOOSA,AL,33.23,-87.54
15,FAIRHOPE,AL,30.51,-87.88
16,ANCHORAGE,AK,61.2,-149.82
17,TUCSON,AZ,32.25,-110.87
18,COTTONWOOD,AZ,34.75,-112.01
19,PRESCOTT,AZ,34.62,-112.42
20,PHOENIX,AZ,33.5,-112.08
21,SUN CITY,AZ,33.6,-112.28
22,SHOW LOW,AZ,34.23,-110.07
23,MESA,AZ,33.38,-111.87
24,LAKE HAVASU CIT,AZ,34.48,-114.32
25,SCOTTSDALE,AZ,33.61,-111.89
26,BULLHEAD CITY,AZ,35.09,-114.57
27,FAYETTEVILLE,AR,36.07,-94.15
28,LITTLE ROCK,AR,34.72,-92.35
29,ROGERS,AR,36.33,-94.13
30,JONESBORO,AR,35.82,-90.68
31,SPRINGDALE,AR,36.18,-94.14
32,HOT SPRINGS,AR,34.5,-93.05
33,MOUNTAIN HOME,AR,36.33,-92.37
34,CONWAY,AR,35.05,-92.5
35,NORTH LITTLE RO,AR,34.78,-92.25
36,FORT SMITH,AR,35.36,-94.38
37,EL DORADO,AR,33.21,-92.66
38,BATESVILLE,AR,35.76,-91.62
39,EUREKA,CA,40.8,-124.15
40,SAINT HELENA,CA,38.55,-122.39
41,SACRAMENTO,CA,38.56,-121.43
42,RIVERSIDE,CA,33.99,-117.38
43,LA MESA,CA,32.78,-117.01
44,BAKERSFIELD,CA,35.38,-119.02
45,CHICO,CA,39.74,-121.83
46,VISALIA,CA,36.4,-119.38
47,ORANGE,CA,33.78,-117.86
48,SAN DIEGO,CA,32.74,-117.17
49,OXNARD,CA,34.19,-119.17
50,STOCKTON,CA,37.97,-121.32
51,FRESNO,CA,36.81,-119.75
52,UPLAND,CA,34.1,-117.66
53,SANTA MARIA,CA,34.91,-120.23
54,OCEANSIDE,CA,33.2,-117.29
55,MARYSVILLE,CA,39.15,-121.47
56,MONTEREY,CA,36.6,-121.88
57,FULLERTON,CA,33.9,-117.91
58,SANTA ROSA,CA,38.43,-122.67
59,FREMONT,CA,37.5,-121.96
60,REDWOOD CITY,CA,37.4,-122.29
61,CHULA VISTA,CA,32.61,-117.03
62,NEWPORT BEACH,CA,33.62,-117.93
63,PARADISE,CA,39.74,-121.61
64,SAN LUIS OBISPO,CA,35.25,-120.62
65,BURBANK,CA,34.17,-118.34
66,GLENDALE,CA,34.16,-118.2
67,LOS ANGELES,CA,34.07,-118.44
68,REDDING,CA,40.6,-122.46
69,SANTA MONICA,CA,34.02,-118.47
70,MOUNTAIN VIEW,CA,37.38,-122.08
71,LA JOLLA,CA,32.86,-117.24
72,SALINAS,CA,36.64,-121.62
73,SONORA,CA,37.98,-120.39
74,TORRANCE,CA,33.84,-118.32
75,GREENBRAE,CA,37.94,-122.56
76,COVINA,CA,34.08,-117.88
77,HEMET,CA,33.66,-116.98
78,VENTURA,CA,34.28,-119.22
79,SANTA BARBARA,CA,34.42,-119.7
80,PASADENA,CA,34.16,-118.16
81,STANFORD,CA,37.41,-122.17
82,SAN FRANCISCO,CA,37.76,-122.45
83,MODESTO,CA,37.67,-121.01
84,WEST HILLS,CA,34.2,-118.69
85,LONG BEACH,CA,33.81,-118.18
86,CONCORD,CA,38,-122.03
87,CARMICHAEL,CA,38.62,-121.32
88,RANCHO MIRAGE,CA,33.78,-116.41
89,LAGUNA HILLS,CA,33.6,-117.71
90,TARZANA,CA,34.15,-118.54
91,GREELEY,CO,40.42,-104.74
92,DENVER,CO,39.76,-104.87
93,PUEBLO,CO,38.27,-104.62
94,COLORADO SPRING,CO,38.86,-104.76
95,GRAND JUNCTION,CO,39.08,-108.55
96,BOULDER,CO,40.02,-105.25
97,AURORA,CO,39.69,-104.81
98,LOVELAND,CO,40.41,-105.07
99,NEW HAVEN,CT,41.31,-72.92
100,HARTFORD,CT,41.76,-72.68
101,WATERBURY,CT,41.55,-73.03
102,STAMFORD,CT,41.09,-73.55
103,MERIDEN,CT,41.53,-72.79
104,MIDDLETOWN,CT,41.54,-72.65
105,BRIDGEPORT,CT,41.18,-73.19
106,DANBURY,CT,41.4,-73.47
107,NORWALK,CT,41.09,-73.42
108,NEWARK,DE,39.67,-75.75
109,DOVER,DE,39.15,-75.51
110,LEWES,DE,38.76,-75.17
111,WASHINGTON,DC,38.89,-77.03
112,BOYNTON BEACH,FL,26.52,-80.08
113,ORLANDO,FL,28.5,-81.37
114,MIAMI,FL,25.77,-80.2
115,FORT MYERS,FL,26.63,-81.85
116,DAYTONA BEACH,FL,29.19,-81.05
117,NAPLES,FL,26.14,-81.79
118,MELBOURNE,FL,28.08,-80.6
119,INVERNESS,FL,28.83,-82.34
120,PENSACOLA,FL,30.44,-87.18
121,PANAMA CITY,FL,30.17,-85.67
122,TITUSVILLE,FL,28.58,-80.82
123,MIAMI BEACH,FL,25.77,-80.2
124,BRADENTON,FL,27.48,-82.57
125,JACKSONVILLE,FL,30.33,-81.65
126,STUART,FL,27.19,-80.24
127,ZEPHYRHILLS,FL,28.23,-82.17
128,SEBRING,FL,27.49,-81.45
129,WINTER HAVEN,FL,28.04,-81.72
130,TAVARES,FL,28.8,-81.73
131,OCALA,FL,29.18,-82.13
132,SAINT PETERSBUR,FL,27.75,-82.64
133,VENICE,FL,27.09,-82.43
134,BROOKSVILLE,FL,28.55,-82.39
135,FORT LAUDERDALE,FL,26.14,-80.13
136,TAMPA,FL,27.95,-82.48
137,PORT CHARLOTTE,FL,26.98,-82.1
138,ATLANTIS,FL,26.61,-80.05
139,LEESBURG,FL,28.8,-81.88
140,SARASOTA,FL,27.33,-82.54
141,SAINT AUGUSTINE,FL,29.89,-81.31
142,ROCKLEDGE,FL,28.31,-80.72
143,VERO BEACH,FL,27.64,-80.39
144,KISSIMMEE,FL,28.3,-81.41
145,GAINESVILLE,FL,29.67,-82.33
146,PALM COAST,FL,29.57,-81.21
147,CLEARWATER,FL,27.97,-82.76
148,TALLAHASSEE,FL,30.45,-84.28
149,SOUTH MIAMI,FL,25.77,-80.2
150,LAKELAND,FL,28.04,-81.96
151,SANFORD,FL,28.78,-81.27
152,BOCA RATON,FL,26.37,-80.1
153,PALM BEACH GARD,FL,26.74,-80.12
154,TRINITY,FL,28.24,-82.71
155,FORT WALTON BEA,FL,30.42,-86.61
156,ORANGE PARK,FL,30.16,-81.7
157,PALATKA,FL,29.64,-81.65
158,BRANDON,FL,27.92,-82.29
159,CAPE CORAL,FL,26.63,-81.99
160,FORT PIERCE,FL,27.44,-80.32
161,LARGO,FL,27.9,-82.78
162,JUPITER,FL,26.92,-80.1
163,HUDSON,FL,28.35,-82.69
164,PORT SAINT LUCI,FL,27.27,-80.35
165,SAFETY HARBOR,FL,28,-82.69
166,THE VILLAGES,FL,28.92,-81.92
167,MIRAMAR BEACH,FL,30.39,-86.31
168,ALBANY,GA,31.57,-84.17
169,ATLANTA,GA,33.79,-84.32
170,CARROLLTON,GA,33.58,-85.07
171,BRUNSWICK,GA,31.15,-81.48
172,AUGUSTA,GA,33.45,-81.99
173,GAINESVILLE,GA,34.29,-83.83
174,CARTERSVILLE,GA,34.16,-84.8
175,GRIFFIN,GA,33.24,-84.27
176,MARIETTA,GA,33.95,-84.54
177,SAVANNAH,GA,32.08,-81.1
178,THOMASVILLE,GA,30.83,-83.97
179,ROME,GA,34.26,-85.18
180,ATHENS,GA,33.95,-83.39
181,DECATUR,GA,33.77,-84.29
182,LAWRENCEVILLE,GA,33.94,-83.99
183,MACON,GA,32.83,-83.65
184,DUBLIN,GA,32.53,-82.92
185,COLUMBUS,GA,32.39,-84.87
186,AUSTELL,GA,33.82,-84.64
187,RIVERDALE,GA,33.56,-84.4
188,FAYETTEVILLE,GA,33.44,-84.46
189,TWIN FALLS,ID,42.41,-114.59
190,BOISE,ID,43.6,-116.12
191,IDAHO FALLS,ID,43.42,-112
192,POCATELLO,ID,42.9,-112.39
193,JOLIET,IL,41.52,-88.12
194,EVANSTON,IL,42.04,-87.68
195,PEORIA,IL,40.74,-89.6
196,QUINCY,IL,39.93,-91.38
197,ELGIN,IL,42.03,-88.28
198,STERLING,IL,41.79,-89.69
199,MOUNT VERNON,IL,38.31,-88.91
200,SPRINGFIELD,IL,39.78,-89.64
201,BERWYN,IL,41.84,-87.79
202,PALOS HEIGHTS,IL,41.66,-87.79
203,CHICAGO,IL,41.83,-87.68
204,URBANA,IL,40.1,-88.2
205,MCHENRY,IL,42.34,-88.29
206,DECATUR,IL,39.85,-88.93
207,BLOOMINGTON,IL,40.47,-88.97
208,CARBONDALE,IL,37.72,-89.21
209,OLYMPIA FIELDS,IL,41.51,-87.69
210,WOODSTOCK,IL,42.31,-88.43
211,MARION,IL,37.73,-88.94
212,BELLEVILLE,IL,38.53,-90
213,MATTOON,IL,39.47,-88.36
214,ELMHURST,IL,41.89,-87.94
215,LIBERTYVILLE,IL,42.28,-87.96
216,OAK LAWN,IL,41.71,-87.75
217,GENEVA,IL,41.88,-88.31
218,PARK RIDGE,IL,42.01,-87.84
219,ROCKFORD,IL,42.27,-89.06
220,WINFIELD,IL,41.87,-88.15
221,ARLINGTON HEIGH,IL,42.09,-87.98
222,ELK GROVE VILLA,IL,42,-87.99
223,ROCK ISLAND,IL,41.47,-90.58
224,DOWNERS GROVE,IL,41.79,-88.01
225,GARY,IN,41.59,-87.34
226,LA PORTE,IN,41.6,-86.71
227,JEFFERSONVILLE,IN,38.3,-85.72
228,MISHAWAKA,IN,41.66,-86.16
229,MICHIGAN CITY,IN,41.71,-86.87
230,FORT WAYNE,IN,41.07,-85.13
231,ELKHART,IN,41.68,-85.96
232,TERRE HAUTE,IN,39.47,-87.38
233,GOSHEN,IN,41.57,-85.83
234,HOBART,IN,41.53,-87.26
235,VALPARAISO,IN,41.47,-87.05
236,NEW ALBANY,IN,38.3,-85.82
237,RICHMOND,IN,39.82,-84.88
238,BLOOMINGTON,IN,39.16,-86.52
239,INDIANAPOLIS,IN,39.77,-86.14
240,SOUTH BEND,IN,41.67,-86.26
241,NOBLESVILLE,IN,40.05,-86.03
242,EVANSVILLE,IN,37.98,-87.54
243,ANDERSON,IN,40.09,-85.68
244,MUNCIE,IN,40.19,-85.39
245,LAFAYETTE,IN,40.41,-86.87
246,COLUMBUS,IN,39.21,-85.91
247,JASPER,IN,38.39,-86.93
248,MUNSTER,IN,41.54,-87.5
249,CROWN POINT,IN,41.42,-87.35
250,NEWBURGH,IN,37.94,-87.4
251,FORT DODGE,IA,42.5,-94.17
252,DAVENPORT,IA,41.55,-90.6
253,CEDAR RAPIDS,IA,41.97,-91.66
254,IOWA CITY,IA,41.65,-91.53
255,MASON CITY,IA,43.15,-93.19
256,DUBUQUE,IA,42.5,-90.69
257,CLINTON,IA,41.84,-90.23
258,DES MOINES,IA,41.57,-93.61
259,WATERLOO,IA,42.49,-92.35
260,SIOUX CITY,IA,42.5,-96.39
261,PITTSBURG,KS,37.41,-94.69
262,SALINA,KS,38.81,-97.61
263,HAYS,KS,38.87,-99.31
264,TOPEKA,KS,39.03,-95.69
265,HUTCHINSON,KS,38.06,-97.91
266,KANSAS CITY,KS,39.1,-94.62
267,OLATHE,KS,38.88,-94.81
268,SHAWNEE MISSION,KS,38.9,-94.68
269,WICHITA,KS,37.68,-97.34
270,LAWRENCE,KS,38.96,-95.25
271,LEAWOOD,KS,38.9,-94.68
272,ANDOVER,KS,37.69,-97.13
273,ASHLAND,KY,38.45,-82.64
274,LEXINGTON,KY,38.04,-84.45
275,ELIZABETHTOWN,KY,37.7,-85.87
276,BOWLING GREEN,KY,36.97,-86.44
277,MURRAY,KY,36.61,-88.31
278,COVINGTON,KY,39.08,-84.5
279,OWENSBORO,KY,37.75,-87.11
280,LOUISVILLE,KY,38.22,-85.74
281,PIKEVILLE,KY,37.47,-82.51
282,DANVILLE,KY,37.64,-84.77
283,HOPKINSVILLE,KY,36.85,-87.49
284,MADISONVILLE,KY,37.33,-87.5
285,PADUCAH,KY,37.07,-88.63
286,SOMERSET,KY,37.08,-84.6
287,LAFAYETTE,LA,30.21,-92.02
288,THIBODAUX,LA,29.79,-90.82
289,HOUMA,LA,29.57,-90.7
290,HAMMOND,LA,30.5,-90.46
291,ALEXANDRIA,LA,31.29,-92.46
292,LAKE CHARLES,LA,30.21,-93.2
293,NEW ORLEANS,LA,30.06,-89.93
294,SLIDELL,LA,30.28,-89.77
295,COVINGTON,LA,30.47,-90.11
296,BATON ROUGE,LA,30.44,-91.12
297,SHREVEPORT,LA,32.47,-93.79
298,MONROE,LA,32.51,-92.08
299,METAIRIE,LA,29.99,-90.17
300,WEST MONROE,LA,32.51,-92.14
301,LACOMBE,LA,30.3,-89.92
302,PORTLAND,ME,43.66,-70.25
303,LEWISTON,ME,44.08,-70.17
304,BANGOR,ME,44.83,-68.78
305,HAGERSTOWN,MD,39.63,-77.71
306,BALTIMORE,MD,39.3,-76.61
307,SILVER SPRING,MD,39.01,-77.02
308,TOWSON,MD,39.39,-76.62
309,SALISBURY,MD,38.37,-75.58
310,BETHESDA,MD,38.98,-77.12
311,ANNAPOLIS,MD,38.97,-76.5
312,CUMBERLAND,MD,39.65,-78.76
313,ELKTON,MD,39.6,-75.82
314,WESTMINSTER,MD,39.57,-77
315,GLEN BURNIE,MD,39.16,-76.6
316,BEL AIR,MD,39.53,-76.34
317,LEOMINSTER,MA,42.51,-71.77
318,ATTLEBORO,MA,41.93,-71.29
319,LAWRENCE,MA,42.7,-71.16
320,HYANNIS,MA,41.65,-70.29
321,BEVERLY,MA,42.55,-70.84
322,SALEM,MA,42.51,-70.9
323,PITTSFIELD,MA,42.45,-73.26
324,PLYMOUTH,MA,41.95,-70.66
325,LOWELL,MA,42.63,-71.32
326,MELROSE,MA,42.45,-71.05
327,BOSTON,MA,42.35,-71.06
328,FALL RIVER,MA,41.71,-71.1
329,SPRINGFIELD,MA,42.11,-72.53
330,METHUEN,MA,42.71,-71.18
331,BROCKTON,MA,42.08,-71.02
332,NORWOOD,MA,42.18,-71.19
333,FALMOUTH,MA,41.56,-70.62
334,WORCESTER,MA,42.26,-71.8
335,BURLINGTON,MA,42.5,-71.2
336,FRAMINGHAM,MA,42.3,-71.43
337,LIVONIA,MI,42.39,-83.37
338,MUSKEGON,MI,43.22,-86.25
339,KALAMAZOO,MI,42.27,-85.58
340,SOUTHFIELD,MI,42.47,-83.25
341,DEARBORN,MI,42.31,-83.21
342,ST JOSEPH,MI,42.03,-86.45
343,PONTIAC,MI,42.64,-83.28
344,ALPENA,MI,45.07,-83.43
345,GRAND RAPIDS,MI,42.96,-85.65
346,BAY CITY,MI,43.59,-83.88
347,ANN ARBOR,MI,42.27,-83.73
348,CLINTON TOWNSHI,MI,42.58,-82.91
349,MARQUETTE,MI,46.55,-87.39
350,SAGINAW,MI,43.41,-83.94
351,BATTLE CREEK,MI,42.29,-85.22
352,JACKSON,MI,42.24,-84.4
353,TRAVERSE CITY,MI,44.75,-85.6
354,MONROE,MI,41.91,-83.38
355,PETOSKEY,MI,45.36,-84.95
356,ROYAL OAK,MI,42.5,-83.15
357,FLINT,MI,43.02,-83.69
358,WYANDOTTE,MI,42.21,-83.15
359,FARMINGTON HILL,MI,42.46,-83.37
360,DETROIT,MI,42.38,-82.91
361,LANSING,MI,42.7,-84.55
362,WARREN,MI,42.49,-83.02
363,GRAND BLANC,MI,42.92,-83.61
364,PORT HURON,MI,42.97,-82.42
365,MARSHALL,MI,42.26,-84.95
366,MIDLAND,MI,43.62,-84.22
367,MOUNT CLEMENS,MI,42.59,-82.88
368,WYOMING,MI,42.89,-85.72
369,GARDEN CITY,MI,42.32,-83.34
370,TROY,MI,42.58,-83.14
371,ROBBINSDALE,MN,44.96,-93.26
372,DULUTH,MN,46.78,-92.11
373,ROCHESTER,MN,44.01,-92.47
374,SAINT CLOUD,MN,45.55,-94.17
375,SAINT PAUL,MN,44.94,-93.1
376,SAINT LOUIS PAR,MN,44.96,-93.26
377,MINNEAPOLIS,MN,44.96,-93.26
378,EDINA,MN,44.96,-93.26
379,MANKATO,MN,44.16,-93.99
380,BEMIDJI,MN,47.48,-94.87
381,COON RAPIDS,MN,44.96,-93.26
382,TUPELO,MS,34.26,-88.73
383,CORINTH,MS,34.93,-88.51
384,GULFPORT,MS,30.38,-89.06
385,VICKSBURG,MS,32.32,-90.87
386,OXFORD,MS,34.35,-89.52
387,PASCAGOULA,MS,30.36,-88.54
388,JACKSON,MS,32.32,-90.2
389,MERIDIAN,MS,32.38,-88.71
390,HATTIESBURG,MS,31.31,-89.3
391,COLUMBUS,MS,33.5,-88.4
392,SOUTHAVEN,MS,34.97,-89.99
393,JOPLIN,MO,37.08,-94.5
394,SAINT CHARLES,MO,38.79,-90.51
395,SAINT JOSEPH,MO,39.76,-94.85
396,SAINT LOUIS,MO,38.63,-90.24
397,CRYSTAL CITY,MO,38.22,-90.38
398,HANNIBAL,MO,39.7,-91.38
399,KANSAS CITY,MO,39.09,-94.58
400,SPRINGFIELD,MO,37.19,-93.28
401,JEFFERSON CITY,MO,38.57,-92.19
402,COLUMBIA,MO,38.95,-92.32
403,WEST PLAINS,MO,36.74,-91.86
404,INDEPENDENCE,MO,39.08,-94.35
405,NORTH KANSAS CI,MO,39.09,-94.58
406,TOWN AND COUNTR,MO,38.63,-90.24
407,CAPE GIRARDEAU,MO,37.3,-89.55
408,POPLAR BLUFF,MO,36.76,-90.4
409,LIBERTY,MO,39.24,-94.41
410,CHESTERFIELD,MO,38.65,-90.58
411,OSAGE BEACH,MO,38.13,-92.65
412,BILLINGS,MT,45.65,-108.38
413,GREAT FALLS,MT,47.29,-111.34
414,KALISPELL,MT,48.19,-114.38
415,LINCOLN,NE,40.81,-96.68
416,KEARNEY,NE,40.7,-99.08
417,OMAHA,NE,41.26,-96.01
418,SCOTTSBLUFF,NE,41.86,-103.66
419,NORFOLK,NE,42.03,-97.41
420,RENO,NV,39.48,-119.74
421,LAS VEGAS,NV,36.11,-115.12
422,CARSON CITY,NV,39.16,-119.86
423,HENDERSON,NV,35.98,-115.11
424,CONCORD,NH,43.23,-71.56
425,LEBANON,NH,43.63,-72.25
426,LACONIA,NH,43.56,-71.48
427,MANCHESTER,NH,42.99,-71.45
428,DOVER,NH,43.19,-70.87
429,PORTSMOUTH,NH,43.05,-70.78
430,HACKENSACK,NJ,40.88,-74.04
431,NEWARK,NJ,40.72,-74.17
432,PASSAIC,NJ,40.85,-74.12
433,BELLEVILLE,NJ,40.79,-74.16
434,PLAINSBORO,NJ,40.33,-74.58
435,RIDGEWOOD,NJ,40.98,-74.11
436,CAMDEN,NJ,39.93,-75.1
437,MORRISTOWN,NJ,40.79,-74.47
438,POMPTON PLAINS,NJ,40.96,-74.3
439,PATERSON,NJ,40.91,-74.16
440,BERLIN,NJ,39.79,-74.93
441,BROWNS MILLS,NJ,39.95,-74.55
442,VINELAND,NJ,39.46,-74.99
443,RED BANK,NJ,40.34,-74.06
444,NEW BRUNSWICK,NJ,40.48,-74.44
445,TOMS RIVER,NJ,39.95,-74.18
446,PENNINGTON,NJ,40.32,-74.79
447,ENGLEWOOD,NJ,40.89,-73.97
448,SOMERS POINT,NJ,39.31,-74.6
449,SOMERVILLE,NJ,40.57,-74.61
450,DENVILLE,NJ,40.89,-74.48
451,SUMMIT,NJ,40.71,-74.36
452,BRICK,NJ,40.06,-74.11
453,MOUNT HOLLY,NJ,39.99,-74.78
454,NEPTUNE,NJ,40.21,-74.08
455,LONG BRANCH,NJ,40.29,-73.98
456,WOODBURY,NJ,39.83,-75.15
457,STRATFORD,NJ,39.82,-75.01
458,EDISON,NJ,40.52,-74.36
459,FREEHOLD,NJ,40.25,-74.27
460,ALBUQUERQUE,NM,35.11,-106.62
461,LAS CRUCES,NM,32.33,-106.75
462,CARLSBAD,NM,32.4,-104.23
463,ROSWELL,NM,33.37,-104.52
464,BUFFALO,NY,42.88,-78.85
465,BINGHAMTON,NY,42.1,-75.91
466,ALBANY,NY,42.66,-73.79
467,POUGHKEEPSIE,NY,41.69,-73.92
468,NEW YORK,NY,40.71,-73.99
469,BAY SHORE,NY,40.72,-73.25
470,UTICA,NY,43.1,-75.23
471,BRONX,NY,40.84,-73.87
472,ELMIRA,NY,42.08,-76.8
473,MANHASSET,NY,40.79,-73.69
474,RIVERHEAD,NY,40.94,-72.67
475,ROCHESTER,NY,43.16,-77.61
476,MIDDLETOWN,NY,41.44,-74.42
477,COOPERSTOWN,NY,42.7,-74.92
478,SYRACUSE,NY,43.04,-76.14
479,SCHENECTADY,NY,42.8,-73.92
480,SUFFERN,NY,41.11,-74.14
481,STATEN ISLAND,NY,40.58,-74.14
482,MINEOLA,NY,40.74,-73.63
483,ROSLYN,NY,40.79,-73.64
484,PORT JEFFERSON,NY,40.94,-73.05
485,GLENS FALLS,NY,43.31,-73.64
486,BROOKLYN,NY,40.64,-73.94
487,NEW HYDE PARK,NY,40.73,-73.68
488,OCEANSIDE,NY,40.63,-73.63
489,SARATOGA SPRING,NY,43.06,-73.77
490,KINGSTON,NY,41.93,-73.99
491,VALHALLA,NY,41.07,-73.77
492,PLATTSBURGH,NY,44.69,-73.45
493,NEWBURGH,NY,41.5,-74.02
494,WEST ISLIP,NY,40.7,-73.29
495,JOHNSON CITY,NY,42.11,-75.96
496,CONCORD,NC,35.4,-80.59
497,ASHEVILLE,NC,35.57,-82.54
498,HIGH POINT,NC,35.98,-79.99
499,WINSTON-SALEM,NC,36.1,-80.24
500,HENDERSONVILLE,NC,35.32,-82.46
501,SHELBY,NC,35.28,-81.54
502,KINSTON,NC,35.27,-77.59
503,FAYETTEVILLE,NC,35.05,-78.87
504,DURHAM,NC,35.98,-78.91
505,GASTONIA,NC,35.25,-81.17
506,GREENVILLE,NC,35.59,-77.37
507,LUMBERTON,NC,34.63,-79.01
508,CHARLOTTE,NC,35.19,-80.83
509,RALEIGH,NC,35.82,-78.65
510,BURLINGTON,NC,36.08,-79.44
511,GREENSBORO,NC,36.07,-79.82
512,ELIZABETH CITY,NC,36.29,-76.22
513,PINEHURST,NC,35.18,-79.46
514,HICKORY,NC,35.73,-81.32
515,NEW BERN,NC,35.11,-77.07
516,WILMINGTON,NC,34.21,-77.91
517,ROCKY MOUNT,NC,35.95,-77.81
518,BISMARCK,ND,46.8,-100.76
519,MINOT,ND,48.23,-101.29
520,FARGO,ND,46.87,-96.81
521,GRAND FORKS,ND,47.91,-97.07
522,COLUMBUS,OH,39.98,-82.98
523,PORTSMOUTH,OH,38.75,-82.95
524,LIMA,OH,40.74,-84.11
525,WESTERVILLE,OH,40.12,-82.91
526,CINCINNATI,OH,39.09,-84.51
527,BARBERTON,OH,41.01,-81.6
528,AKRON,OH,41.08,-81.52
529,SANDUSKY,OH,41.45,-82.71
530,ZANESVILLE,OH,39.95,-82.01
531,TOLEDO,OH,41.66,-83.58
532,DAYTON,OH,39.77,-84.19
533,GALLIPOLIS,OH,38.82,-82.19
534,FAIRFIELD,OH,39.33,-84.54
535,CLEVELAND,OH,41.47,-81.67
536,YOUNGSTOWN,OH,41.09,-80.64
537,CANTON,OH,40.81,-81.37
538,LANCASTER,OH,39.72,-82.59
539,KETTERING,OH,39.77,-84.19
540,MARTINS FERRY,OH,40.1,-80.72
541,MAUMEE,OH,41.57,-83.65
542,FINDLAY,OH,41.04,-83.64
543,CONCORD,OH,41.72,-81.24
544,MANSFIELD,OH,40.76,-82.52
545,WESTLAKE,OH,41.45,-81.92
546,GARFIELD HEIGHT,OH,41.47,-81.67
547,MIDDLEBURG HEIG,OH,41.47,-81.67
548,CHILLICOTHE,OH,39.33,-82.98
549,WARREN,OH,41.23,-80.81
550,LORAIN,OH,41.44,-82.18
551,CHARDON,OH,41.57,-81.2
552,STEUBENVILLE,OH,40.36,-80.64
553,NEWARK,OH,40.06,-82.42
554,MAYFIELD HEIGHT,OH,41.47,-81.67
555,TULSA,OK,36.12,-95.91
556,ENID,OK,36.4,-97.86
557,OKLAHOMA CITY,OK,35.46,-97.51
558,LAWTON,OK,34.6,-98.42
559,TAHLEQUAH,OK,35.91,-94.97
560,GRANTS PASS,OR,42.37,-123.39
561,PORTLAND,OR,45.49,-122.77
562,CORVALLIS,OR,44.63,-123.27
563,MEDFORD,OR,42.33,-122.79
564,SPRINGFIELD,OR,44.05,-123
565,BEND,OR,44.07,-121.25
566,COOS BAY,OR,43.37,-124.14
567,SCRANTON,PA,41.4,-75.66
568,CAMP HILL,PA,40.24,-76.92
569,DANVILLE,PA,40.96,-76.61
570,ERIE,PA,42.12,-80.08
571,LEWISBURG,PA,40.96,-76.89
572,POTTSVILLE,PA,40.67,-76.2
573,READING,PA,40.33,-75.92
574,WILLIAMSPORT,PA,41.23,-77.03
575,YORK,PA,39.96,-76.73
576,BETHLEHEM,PA,40.62,-75.36
577,PITTSBURGH,PA,40.43,-79.97
578,SELLERSVILLE,PA,40.36,-75.3
579,CARLISLE,PA,40.15,-77.26
580,ALTOONA,PA,40.5,-78.4
581,SAYRE,PA,41.97,-76.51
582,DUBOIS,PA,41.14,-78.73
583,LANCASTER,PA,40.04,-76.3
584,JOHNSTOWN,PA,40.32,-78.91
585,PHILADELPHIA,PA,39.95,-75.16
586,ALLENTOWN,PA,40.59,-75.47
587,WILKES-BARRE,PA,41.24,-75.87
588,BRYN MAWR,PA,40.02,-75.31
589,GREENSBURG,PA,40.31,-79.54
590,PAOLI,PA,40.04,-75.49
591,BUTLER,PA,40.86,-79.89
592,WEST CHESTER,PA,39.95,-75.6
593,WYNNEWOOD,PA,39.99,-75.27
594,EAST STROUDSBUR,PA,41,-75.17
595,ABINGTON,PA,40.12,-75.12
596,HERSHEY,PA,40.28,-76.64
597,LANGHORNE,PA,40.17,-74.91
598,STATE COLLEGE,PA,40.79,-77.85
599,WILKES BARRE,PA,41.24,-75.87
600,PROVIDENCE,RI,41.82,-71.41
601,WARWICK,RI,41.7,-71.42
602,ROCK HILL,SC,34.93,-81.02
603,CHARLESTON,SC,32.78,-79.99
604,SPARTANBURG,SC,34.94,-81.92
605,COLUMBIA,SC,34,-81.03
606,GREENVILLE,SC,34.83,-82.37
607,ANDERSON,SC,34.51,-82.64
608,CONWAY,SC,33.83,-79.04
609,FLORENCE,SC,34.18,-79.78
610,BEAUFORT,SC,32.42,-80.68
611,ORANGEBURG,SC,33.49,-80.86
612,GREENWOOD,SC,34.19,-82.15
613,WEST COLUMBIA,SC,33.99,-81.08
614,HILTON HEAD ISL,SC,32.19,-80.74
615,AIKEN,SC,33.54,-81.72
616,MYRTLE BEACH,SC,33.69,-78.89
617,MURRELLS INLET,SC,33.55,-79.05
618,YANKTON,SD,42.88,-97.39
619,SIOUX FALLS,SD,43.54,-96.73
620,RAPID CITY,SD,44.07,-103.23
621,JACKSON,TN,35.63,-88.82
622,MARYVILLE,TN,35.74,-83.97
623,BRISTOL,TN,36.56,-82.19
624,KNOXVILLE,TN,35.97,-83.94
625,KINGSPORT,TN,36.52,-82.55
626,FRANKLIN,TN,35.92,-86.84
627,OAK RIDGE,TN,35.96,-84.29
628,CLARKSVILLE,TN,36.56,-87.34
629,NASHVILLE,TN,36.17,-86.78
630,MEMPHIS,TN,35.1,-90
631,MURFREESBORO,TN,35.85,-86.39
632,COOKEVILLE,TN,36.15,-85.5
633,JOHNSON CITY,TN,36.33,-82.36
634,COLUMBIA,TN,35.62,-87.04
635,CHATTANOOGA,TN,35.06,-85.25
636,SHELBYVILLE,TN,35.49,-86.44
637,HERMITAGE,TN,36.13,-86.58
638,KERRVILLE,TX,30.04,-99.13
639,WICHITA FALLS,TX,33.89,-98.51
640,BRYAN,TX,30.66,-96.36
641,VICTORIA,TX,28.82,-96.98
642,BEAUMONT,TX,30.08,-94.14
643,LONGVIEW,TX,32.51,-94.76
644,LUBBOCK,TX,33.57,-101.87
645,WACO,TX,31.49,-97.23
646,CORPUS CHRISTI,TX,27.8,-97.39
647,DALLAS,TX,32.79,-96.76
648,TEMPLE,TX,31.09,-97.36
649,AUSTIN,TX,30.26,-97.74
650,SAN ANTONIO,TX,29.45,-98.5
651,ARLINGTON,TX,32.69,-97.12
652,HOUSTON,TX,29.76,-95.38
653,IRVING,TX,32.85,-96.96
654,TYLER,TX,32.32,-95.3
655,NORTH RICHLAND,TX,32.86,-97.21
656,EDINBURG,TX,26.29,-98.16
657,ODESSA,TX,31.85,-102.36
658,MIDLAND,TX,32.02,-102.1
659,FORT WORTH,TX,32.75,-97.33
660,PARIS,TX,33.66,-95.54
661,TEXARKANA,TX,33.44,-94.07
662,AMARILLO,TX,35.2,-101.81
663,LUFKIN,TX,31.33,-94.72
664,CONROE,TX,30.32,-95.47
665,ABILENE,TX,32.45,-99.73
666,SULPHUR SPRINGS,TX,33.14,-95.61
667,DECATUR,TX,33.23,-97.59
668,GARLAND,TX,32.91,-96.62
669,DENISON,TX,33.75,-96.56
670,SAN ANGELO,TX,31.44,-100.45
671,PORT ARTHUR,TX,29.89,-93.92
672,GRAPEVINE,TX,32.93,-97.07
673,FREDERICKSBURG,TX,30.27,-98.87
674,WEBSTER,TX,29.53,-95.11
675,DENTON,TX,33.14,-97.06
676,BEDFORD,TX,32.84,-97.13
677,LAREDO,TX,27.53,-99.48
678,PLANO,TX,33.04,-96.74
679,BURLESON,TX,32.53,-97.32
680,HUMBLE,TX,29.99,-95.26
681,MCALLEN,TX,26.21,-98.23
682,KINGWOOD,TX,29.99,-95.26
683,SUGAR LAND,TX,29.61,-95.61
684,THE WOODLANDS,TX,30.32,-95.47
685,PROVO,UT,40.33,-111.57
686,OGDEN,UT,41.15,-111.98
687,MURRAY,UT,40.65,-111.88
688,ST GEORGE,UT,37.06,-113.57
689,SALT LAKE CITY,UT,40.67,-111.79
690,BURLINGTON,VT,44.48,-73.22
691,HARRISONBURG,VA,38.43,-78.87
692,WINCHESTER,VA,39.17,-78.17
693,NORFOLK,VA,36.84,-76.28
694,CHARLOTTESVILLE,VA,38.03,-78.48
695,FISHERSVILLE,VA,38.09,-78.96
696,LYNCHBURG,VA,37.4,-79.19
697,FREDERICKSBURG,VA,38.29,-77.48
698,ROANOKE,VA,37.27,-79.95
699,ALEXANDRIA,VA,38.82,-77.08
700,CHRISTIANSBURG,VA,37.14,-80.4
701,SUFFOLK,VA,36.7,-76.63
702,MANASSAS,VA,38.74,-77.48
703,SALEM,VA,37.28,-80.05
704,ARLINGTON,VA,38.87,-77.1
705,NEWPORT NEWS,VA,37.07,-76.51
706,VIRGINIA BEACH,VA,36.73,-76.04
707,FALLS CHURCH,VA,38.88,-77.17
708,WILLIAMSBURG,VA,37.27,-76.7
709,MECHANICSVILLE,VA,37.62,-77.35
710,MARTINSVILLE,VA,36.68,-79.86
711,HAMPTON,VA,37.04,-76.29
712,FAIRFAX,VA,38.85,-77.29
713,RESTON,VA,38.95,-77.34
714,RICHMOND,VA,37.55,-77.46
715,WALLA WALLA,WA,46.11,-118.3
716,SEATTLE,WA,47.61,-122.33
717,YAKIMA,WA,46.59,-120.53
718,EVERETT,WA,47.98,-122.2
719,WENATCHEE,WA,47.37,-120.29
720,OLYMPIA,WA,47.1,-122.86
721,BELLINGHAM,WA,48.73,-122.48
722,BREMERTON,WA,47.59,-122.62
723,LONGVIEW,WA,46.19,-123.05
724,VANCOUVER,WA,45.71,-122.62
725,BELLEVUE,WA,47.61,-122.21
726,SPOKANE,WA,47.64,-117.43
727,RICHLAND,WA,46.32,-119.32
728,RENTON,WA,47.46,-122.21
729,KIRKLAND,WA,47.72,-122.2
730,TACOMA,WA,47.25,-122.45
731,FEDERAL WAY,WA,47.3,-122.31
732,MORGANTOWN,WV,39.63,-79.94
733,BRIDGEPORT,WV,39.29,-80.25
734,HUNTINGTON,WV,38.41,-82.43
735,GLEN DALE,WV,39.94,-80.75
736,CHARLESTON,WV,38.35,-81.63
737,SOUTH CHARLESTO,WV,38.35,-81.63
738,WHEELING,WV,40.07,-80.69
739,PARKERSBURG,WV,39.26,-81.54
740,BECKLEY,WV,37.78,-81.18
741,LA CROSSE,WI,43.82,-91.23
742,EAU CLAIRE,WI,44.82,-91.49
743,KENOSHA,WI,42.58,-87.85
744,WAUSAU,WI,44.96,-89.64
745,MARSHFIELD,WI,44.66,-90.17
746,GREEN BAY,WI,44.52,-87.98
747,JANESVILLE,WI,42.68,-89.07
748,MILWAUKEE,WI,43.06,-87.96
749,MADISON,WI,43.07,-89.38
750,MENOMONEE FALLS,WI,43.14,-88.12
751,APPLETON,WI,44.26,-88.39
752,CASPER,WY,42.83,-106.32
753,CHEYENNE,WY,41.14,-104.79
754,CYPRESS,TX,29.96,-95.69
755,ROUND ROCK,TX,30.51,-97.67
756,SUNNYVALE,TX,32.79,-96.55
757,SHEFFIELD,AL,34.75,-87.7
758,SELMA,AL,32.41,-87.03
759,FAIRBANKS,AK,64.81,-147.72
760,YUMA,AZ,32.68,-114.66
761,GLENDALE,AZ,33.62,-112.17
762,SUN CITY WEST,AZ,33.67,-112.36
763,SEARCY,AR,35.24,-91.73
764,CAMDEN,AR,33.56,-92.84
765,PINE BLUFF,AR,34.21,-92.01
766,BURLINGAME,CA,37.56,-122.37
767,OAKLAND,CA,37.83,-122.26
768,LANCASTER,CA,34.72,-118.15
769,SAN PABLO,CA,37.98,-122.33
770,ESCONDIDO,CA,33.09,-116.94
771,HANFORD,CA,36.27,-119.63
772,SAN JOSE,CA,37.35,-121.85
773,WALNUT CREEK,CA,37.91,-122.01
774,POMONA,CA,34.08,-117.73
775,ARCADIA,CA,34.13,-118.02
776,COLTON,CA,34.01,-117.27
777,MARTINEZ,CA,37.98,-122.15
778,MISSION HILLS,CA,34.26,-118.46
779,BERKELEY,CA,37.86,-122.24
780,ROSEVILLE,CA,38.74,-121.25
781,LOMA LINDA,CA,34.05,-117.24
782,CASTRO VALLEY,CA,37.7,-122.08
783,ANTIOCH,CA,37.99,-121.81
784,THOUSAND OAKS,CA,34.21,-118.88
785,LOS ALAMITOS,CA,33.79,-118.06
786,MISSION VIEJO,CA,33.6,-117.66
787,FOUNTAIN VALLEY,CA,33.71,-117.94
788,MURRIETA,CA,33.54,-117.33
789,MONTEREY PARK,CA,34.05,-118.14
790,MARINA DEL REY,CA,33.99,-118.46
791,WHEAT RIDGE,CO,39.77,-105.09
792,FORT COLLINS,CO,40.55,-105.06
793,ENGLEWOOD,CO,39.64,-104.96
794,WESTMINSTER,CO,39.88,-105.05
795,NEW LONDON,CT,41.35,-72.1
796,GREENWICH,CT,41.06,-73.63
797,DERBY,CT,41.32,-73.08
798,NEW BRITAIN,CT,41.67,-72.78
799,WILMINGTON,DE,39.73,-75.53
800,OCOEE,FL,28.57,-81.53
801,HOLLYWOOD,FL,26.02,-80.16
802,DUNEDIN,FL,28.02,-82.77
803,HIALEAH,FL,25.86,-80.29
804,NEW PORT RICHEY,FL,28.24,-82.71
805,LEHIGH ACRES,FL,26.6,-81.63
806,CRESTVIEW,FL,30.75,-86.57
807,AVENTURA,FL,25.77,-80.2
808,DAVENPORT,FL,28.16,-81.6
809,PLANTATION,FL,26.14,-80.13
810,TAMARAC,FL,26.14,-80.13
811,WEST PALM BEACH,FL,26.74,-80.12
812,DELRAY BEACH,FL,26.45,-80.08
813,SUN CITY CENTER,FL,27.72,-82.35
814,CORAL SPRINGS,FL,26.23,-80.13
815,PEMBROKE PINES,FL,26,-80.34
816,WESTON,FL,26.14,-80.13
817,SAINT CLOUD,FL,28.24,-81.28
818,PALM BAY,FL,27.98,-80.66
819,CUMMING,GA,34.2,-84.13
820,COVINGTON,GA,33.6,-83.85
821,WARNER ROBINS,GA,32.61,-83.63
822,STATESBORO,GA,32.44,-81.77
823,TIFTON,GA,31.46,-83.51
824,VALDOSTA,GA,30.84,-83.27
825,SNELLVILLE,GA,33.85,-84
826,ROSWELL,GA,34.03,-84.35
827,HONOLULU,HI,21.3,-157.85
828,MELROSE PARK,IL,41.9,-87.86
829,AURORA,IL,41.76,-88.29
830,CENTRALIA,IL,38.52,-89.12
831,SKOKIE,IL,42.03,-87.73
832,OAK PARK,IL,41.88,-87.78
833,LA GRANGE,IL,41.8,-87.87
834,WAUKEGAN,IL,42.37,-87.86
835,DANVILLE,IL,40.14,-87.61
836,BLUE ISLAND,IL,41.65,-87.68
837,PEKIN,IL,40.56,-89.62
838,HINSDALE,IL,41.8,-87.92
839,NORMAL,IL,40.51,-88.99
840,KANKAKEE,IL,41.11,-87.86
841,EVERGREEN PARK,IL,41.72,-87.7
842,HARVEY,IL,41.6,-87.65
843,NEW LENOX,IL,41.51,-87.98
844,NAPERVILLE,IL,41.76,-88.15
845,HAZEL CREST,IL,41.57,-87.68
846,MAYWOOD,IL,41.88,-87.84
847,HOFFMAN ESTATES,IL,42.03,-88.08
848,BARRINGTON,IL,42.15,-88.12
849,KOKOMO,IN,40.47,-86.13
850,EAST CHICAGO,IN,41.64,-87.45
851,DYER,IN,41.5,-87.5
852,AVON,IN,39.76,-86.39
853,WEST BURLINGTON,IA,40.82,-91.17
854,FORT THOMAS,KY,39.08,-84.45
855,CORBIN,KY,36.93,-84.1
856,YORK,ME,43.14,-70.65
857,AUGUSTA,ME,44.33,-69.72
858,ROCKPORT,ME,44.18,-69.07
859,CHEVERLY,MD,38.95,-76.95
860,FREDERICK,MD,39.42,-77.41
861,TAKOMA PARK,MD,38.98,-77
862,OLNEY,MD,39.14,-77.08
863,CHESTERTOWN,MD,39.21,-76.07
864,LA PLATA,MD,38.53,-76.97
865,EASTON,MD,38.77,-76.06
866,RANDALLSTOWN,MD,39.37,-76.8
867,COLUMBIA,MD,39.2,-76.85
868,LANHAM,MD,38.96,-76.85
869,CLINTON,MD,38.76,-76.89
870,ROCKVILLE,MD,39.08,-77.15
871,CAMBRIDGE,MA,42.37,-71.11
872,NEWBURYPORT,MA,42.81,-70.88
873,BRIGHTON,MA,42.35,-71.15
874,WESTFIELD,MA,42.13,-72.75
875,TAUNTON,MA,41.9,-71.09
876,MILFORD,MA,42.14,-71.51
877,SOUTH WEYMOUTH,MA,42.2,-70.94
878,NEWTON,MA,42.33,-71.25
879,WINCHESTER,MA,42.45,-71.14
880,MILTON,MA,42.24,-71.08
881,GROSSE POINTE,MI,42.38,-82.91
882,WAYNE,MI,42.27,-83.38
883,ROCHESTER,MI,42.68,-83.12
884,COMMERCE TOWNSH,MI,42.59,-83.5
885,W BLOOMFIELD,MI,42.56,-83.38
886,MAPLEWOOD,MN,44.94,-93.1
887,BATESVILLE,MS,34.31,-89.93
888,RICHMOND HEIGHT,MO,38.63,-90.24
889,BRIDGETON,MO,38.76,-90.42
890,LEES SUMMIT,MO,38.91,-94.38
891,NASHUA,NH,42.74,-71.49
892,EXETER,NH,42.97,-70.94
893,NORTH BERGEN,NJ,40.79,-74.02
894,TEANECK,NJ,40.88,-74.01
895,CAPE MAY COURT,NJ,39.07,-74.82
896,JERSEY CITY,NJ,40.71,-74.06
897,TRENTON,NJ,40.22,-74.76
898,RAHWAY,NJ,40.6,-74.28
899,ELIZABETH,NJ,40.66,-74.19
900,NEWTON,NJ,41.05,-74.75
901,PERTH AMBOY,NJ,40.52,-74.27
902,HOBOKEN,NJ,40.74,-74.02
903,MONTCLAIR,NJ,40.82,-74.21
904,WILLINGBORO,NJ,40.02,-74.88
905,ATLANTIC CITY,NJ,39.36,-74.42
906,ELMER,NJ,39.59,-75.17
907,LIVINGSTON,NJ,40.78,-74.32
908,LAKEWOOD,NJ,40.09,-74.21
909,HOLMDEL,NJ,40.37,-74.17
910,YONKERS,NY,40.94,-73.86
911,JAMAICA,NY,40.69,-73.83
912,EAST MEADOW,NY,40.71,-73.55
913,HUNTINGTON,NY,40.87,-73.4
914,FLUSHING,NY,40.77,-73.84
915,BRONXVILLE,NY,40.93,-73.82
916,MOUNT VERNON,NY,40.91,-73.82
917,HUDSON,NY,42.25,-73.78
918,KENMORE,NY,42.88,-78.85
919,NYACK,NY,41.09,-73.91
920,ELMHURST,NY,40.72,-73.87
921,PATCHOGUE,NY,40.76,-73.01
922,MOUNT KISCO,NY,41.2,-73.73
923,LOCKPORT,NY,43.16,-78.69
924,GLEN COVE,NY,40.86,-73.63
925,NEW ROCHELLE,NY,40.92,-73.77
926,AUBURN,NY,42.93,-76.56
927,JAMESTOWN,NY,42.09,-79.23
928,ROCKVILLE CENTR,NY,40.66,-73.63
929,SLEEPY HOLLOW,NY,41.06,-73.86
930,CORTLANDT MANOR,NY,41.3,-73.89
931,WHITE PLAINS,NY,41.02,-73.75
932,ITHACA,NY,42.44,-76.5
933,PLAINVIEW,NY,40.78,-73.47
934,BETHPAGE,NY,40.74,-73.48
935,SOUTHAMPTON,NY,40.88,-72.39
936,FOREST HILLS,NY,40.72,-73.84
937,VALLEY STREAM,NY,40.66,-73.7
938,STONY BROOK,NY,40.9,-73.12
939,FAR ROCKAWAY,NY,40.59,-73.81
940,SMITHTOWN,NY,40.85,-73.21
941,SANFORD,NC,35.47,-79.18
942,BOONE,NC,36.2,-81.66
943,CHAPEL HILL,NC,35.92,-79.04
944,WHITEVILLE,NC,34.32,-78.7
945,DUNN,NC,35.31,-78.61
946,ASHEBORO,NC,35.71,-79.81
947,WILSON,NC,35.73,-77.92
948,CARY,NC,35.78,-78.79
949,PARMA,OH,41.47,-81.67
950,NORWALK,OH,41.24,-82.61
951,FRANKLIN,OH,39.55,-84.3
952,RAVENNA,OH,41.15,-81.24
953,EUCLID,OH,41.47,-81.67
954,ASHTABULA,OH,41.87,-80.79
955,ELYRIA,OH,41.37,-82.1
956,MARIETTA,OH,39.42,-81.44
957,TROY,OH,40.04,-84.21
958,LAKEWOOD,OH,41.48,-81.8
959,BOARDMAN,OH,41.09,-80.64
960,BEACHWOOD,OH,41.47,-81.5
961,NORMAN,OK,35.22,-97.34
962,DURANT,OK,33.98,-96.39
963,MUSKOGEE,OK,35.74,-95.35
964,ROSEBURG,OR,43.24,-123.48
965,MC KEESPORT,PA,40.33,-79.83
966,LANSDALE,PA,40.24,-75.28
967,NATRONA,PA,40.64,-79.73
968,BEAVER,PA,40.69,-80.3
969,LEBANON,PA,40.34,-76.42
970,HARRISBURG,PA,40.27,-76.88
971,DREXEL HILL,PA,39.94,-75.3
972,NORRISTOWN,PA,40.12,-75.33
973,CHAMBERSBURG,PA,39.93,-77.65
974,DARBY,PA,39.92,-75.26
975,EASTON,PA,40.68,-75.22
976,KITTANNING,PA,40.82,-79.52
977,INDIANA,PA,40.62,-79.15
978,UPLAND,PA,39.84,-75.37
979,MEDIA,PA,39.91,-75.38
980,EPHRATA,PA,40.18,-76.18
981,MONROEVILLE,PA,40.42,-79.76
982,SENECA,SC,34.68,-82.95
983,SUMTER,SC,33.94,-80.39
984,MORRISTOWN,TN,36.21,-83.29
985,JAMESTOWN,TN,36.43,-84.93
986,TULLAHOMA,TN,35.37,-86.2
987,BARTLETT,TN,35.1,-90
988,EL PASO,TX,31.84,-106.43
989,GALVESTON,TX,29.3,-94.79
990,HARLINGEN,TX,26.19,-97.68
991,PASADENA,TX,29.66,-95.15
992,WESLACO,TX,26.16,-97.98
993,ATHENS,TX,32.2,-95.85
994,MCKINNEY,TX,33.2,-96.65
995,BROWNSVILLE,TX,25.92,-97.48
996,ALICE,TX,27.75,-98.06
997,PETERSBURG,VA,37.2,-77.39
998,DANVILLE,VA,36.58,-79.4
999,BLACKSBURG,VA,37.23,-80.42
1000,CHESAPEAKE,VA,36.67,-76.3
1001,LOW MOOR,VA,37.74,-79.9
1002,AUBURN,WA,47.3,-122.26
1003,MARTINSBURG,WV,39.46,-77.96
1004,WAUKESHA,WI,43.01,-88.23
1005,RACINE,WI,42.72,-87.8
1006,WEST ALLIS,WI,43.06,-87.96
1007,MANSFIELD,TX,32.56,-97.11
1008,BESSEMER,AL,33.37,-86.96
1009,FLAGSTAFF,AZ,35.23,-111.72
1010,CHANDLER,AZ,33.32,-111.87
1011,GOODYEAR,AZ,33.47,-112.39
1012,GILBERT,AZ,33.3,-111.76
1013,PARAGOULD,AR,36.05,-90.51
1014,RUSSELLVILLE,AR,35.27,-93.14
1015,HAYWARD,CA,37.62,-122.11
1016,NAPA,CA,38.55,-122.15
1017,JACKSON,CA,38.35,-120.77
1018,NATIONAL CITY,CA,32.67,-117.09
1019,EL CENTRO,CA,32.77,-115.6
1020,SANTA CLARA,CA,37.35,-121.98
1021,VALLEJO,CA,38.13,-122.25
1022,SAN PEDRO,CA,33.73,-118.31
1023,LYNWOOD,CA,33.92,-118.2
1024,NORTHRIDGE,CA,34.23,-118.51
1025,VAN NUYS,CA,34.19,-118.49
1026,SAN BERNARDINO,CA,34.17,-117.24
1027,SAN GABRIEL,CA,34.08,-118.09
1028,GRASS VALLEY,CA,39.18,-120.98
1029,ENCINO,CA,34.15,-118.49
1030,FRENCH CAMP,CA,37.86,-121.29
1031,WHITTIER,CA,33.97,-118.01
1032,WATSONVILLE,CA,36.95,-121.72
1033,PALMDALE,CA,34.5,-118.01
1034,ANAHEIM,CA,33.84,-117.95
1035,GARDEN GROVE,CA,33.75,-117.94
1036,SANTA CRUZ,CA,37.03,-121.98
1037,PALM SPRINGS,CA,33.85,-116.56
1038,PLACERVILLE,CA,38.73,-120.8
1039,PORTERVILLE,CA,35.96,-118.92
1040,PLEASANTON,CA,37.67,-121.93
1041,DALY CITY,CA,37.67,-122.47
1042,MORENO VALLEY,CA,33.9,-117.1
1043,APPLE VALLEY,CA,34.57,-117.15
1044,UKIAH,CA,39.12,-123.28
1045,CORONA,CA,33.83,-117.6
1046,LODI,CA,38.11,-121.16
1047,DOWNEY,CA,33.94,-118.13
1048,CRESCENT CITY,CA,41.78,-124.16
1049,MERCED,CA,37.29,-120.48
1050,GARDENA,CA,33.89,-118.29
1051,AUBURN,CA,38.92,-121.07
1052,ENCINITAS,CA,33.05,-117.25
1053,LAKEWOOD,CA,33.84,-118.14
1054,CAMARILLO,CA,34.23,-119.07
1055,VALENCIA,CA,34.41,-118.56
1056,POWAY,CA,32.97,-117.02
1057,GILROY,CA,37.06,-121.55
1058,SAN RAMON,CA,37.78,-121.99
1059,VICTORVILLE,CA,34.48,-117.36
1060,INGLEWOOD,CA,33.95,-118.36
1061,SANTA ANA,CA,33.76,-117.79
1062,SHERMAN OAKS,CA,34.14,-118.46
1063,LONGMONT,CO,40.17,-105.11
1064,LAKEWOOD,CO,39.76,-104.87
1065,LONE TREE,CO,39.59,-105.01
1066,LITTLETON,CO,39.59,-105.01
1067,PARKER,CO,39.5,-104.76
1068,WILLIMANTIC,CT,41.71,-72.21
1069,NORWICH,CT,41.55,-72.08
1070,MANCHESTER,CT,41.78,-72.51
1071,BRISTOL,CT,41.68,-72.94
1072,FARMINGTON,CT,41.71,-72.83
1073,SEAFORD,DE,38.64,-75.61
1074,MILFORD,DE,38.91,-75.43
1075,NEW SMYRNA BEAC,FL,29.02,-80.92
1076,DELAND,FL,29.05,-81.31
1077,PUNTA GORDA,FL,26.89,-82.05
1078,ORANGE CITY,FL,28.93,-81.29
1079,POMPANO BEACH,FL,26.23,-80.13
1080,KEY WEST,FL,24.55,-81.78
1081,COCOA BEACH,FL,28.33,-80.62
1082,MARGATE,FL,26.23,-80.13
1083,CRYSTAL RIVER,FL,28.9,-82.59
1084,LOXAHATCHEE,FL,26.78,-80.43
1085,WELLINGTON,FL,26.74,-80.12
1086,DALTON,GA,34.76,-84.97
1087,LAGRANGE,GA,33.03,-84.98
1088,CALHOUN,GA,34.49,-84.94
1089,CONYERS,GA,33.66,-84.01
1090,CORDELE,GA,31.96,-83.77
1091,MOULTRIE,GA,31.16,-83.77
1092,DOUGLASVILLE,GA,33.74,-84.74
1093,STOCKBRIDGE,GA,33.54,-84.24
1094,EAST POINT,GA,33.66,-84.45
1095,NEWNAN,GA,33.37,-84.78
1096,WAILUKU,HI,20.88,-156.5
1097,WAHIAWA,HI,21.5,-158.02
1098,HILO,HI,19.69,-155.08
1099,KAILUA,HI,21.4,-157.73
1100,LIHUE,HI,21.97,-159.35
1101,AIEA,HI,21.38,-157.92
1102,LEWISTON,ID,46.16,-116.92
1103,COEUR D'ALENE,ID,47.59,-116.91
1104,ALTON,IL,38.9,-90.15
1105,HERRIN,IL,37.8,-89.03
1106,EFFINGHAM,IL,39.11,-88.55
1107,JACKSONVILLE,IL,39.72,-90.23
1108,SILVIS,IL,41.5,-90.41
1109,GLENDALE HEIGHT,IL,41.92,-88.07
1110,BOLINGBROOK,IL,41.7,-88.07
1111,HAMMOND,IN,41.62,-87.49
1112,DANVILLE,IN,39.76,-86.51
1113,BEECH GROVE,IN,39.71,-86.08
1114,VINCENNES,IN,38.67,-87.51
1115,MADISON,IN,38.75,-85.38
1116,AMES,IA,42.02,-93.62
1117,COUNCIL BLUFFS,IA,41.24,-95.85
1118,OTTUMWA,IA,41.01,-92.41
1119,NEWTON,KS,38.04,-97.34
1120,COFFEYVILLE,KS,37.04,-95.63
1121,OVERLAND PARK,KS,38.9,-94.68
1122,WHITESBURG,KY,37.11,-82.82
1123,LONDON,KY,37.12,-84.08
1124,HAZARD,KY,37.25,-83.19
1125,FLORENCE,KY,38.99,-84.64
1126,PAINTSVILLE,KY,37.81,-82.8
1127,OPELOUSAS,LA,30.52,-92.08
1128,MARRERO,LA,29.88,-90.11
1129,JENNINGS,LA,30.22,-92.65
1130,RUSTON,LA,32.53,-92.63
1131,VILLE PLATTE,LA,30.69,-92.28
1132,BOSSIER CITY,LA,32.51,-93.66
1133,DAMARISCOTTA,ME,44.03,-69.51
1134,BIDDEFORD,ME,43.46,-70.44
1135,HAVRE DE GRACE,MD,39.54,-76.09
1136,LEONARDTOWN,MD,38.29,-76.64
1137,PRINCE FREDERIC,MD,38.54,-76.58
1138,BERLIN,MD,38.32,-75.21
1139,GREENFIELD,MA,42.58,-72.59
1140,HOLYOKE,MA,42.21,-72.64
1141,W CONCORD,MA,42.45,-71.35
1142,HOLLAND,MI,42.77,-86.1
1143,TRENTON,MI,42.13,-83.22
1144,LAPEER,MI,43.04,-83.32
1145,TAYLOR,MI,42.22,-83.26
1146,BRAINERD,MN,46.35,-94.19
1147,FRIDLEY,MN,44.96,-93.26
1148,CLARKSDALE,MS,34.2,-90.57
1149,LAUREL,MS,31.69,-89.14
1150,GREENVILLE,MS,33.38,-91.05
1151,GREENWOOD,MS,33.51,-90.19
1152,NATCHEZ,MS,31.54,-91.38
1153,FLOWOOD,MS,32.32,-90.2
1154,SEDALIA,MO,38.7,-93.23
1155,ROLLA,MO,37.94,-91.76
1156,FENTON,MO,38.53,-90.45
1157,BRANSON,MO,36.64,-93.24
1158,SAINT PETERS,MO,38.77,-90.6
1159,LAKE SAINT LOUI,MO,38.78,-90.78
1160,HELENA,MT,46.51,-112.12
1161,MISSOULA,MT,46.91,-114.15
1162,BUTTE,MT,46,-112.44
1163,GRAND ISLAND,NE,40.92,-98.36
1164,HASTINGS,NE,40.58,-98.39
1165,DERRY,NH,42.89,-71.28
1166,FLEMINGTON,NJ,40.5,-74.86
1167,BAYONNE,NJ,40.66,-74.11
1168,PHILLIPSBURG,NJ,40.68,-75.18
1169,EAST ORANGE,NJ,40.76,-74.21
1170,SALEM,NJ,39.56,-75.47
1171,HAMILTON,NJ,40.22,-74.76
1172,MANAHAWKIN,NJ,39.69,-74.25
1173,SANTA FE,NM,35.67,-105.95
1174,FARMINGTON,NM,36.75,-108.18
1175,CANANDAIGUA,NY,42.88,-77.28
1176,WATERTOWN,NY,43.97,-75.91
1177,TROY,NY,42.73,-73.67
1178,CARMEL,NY,41.41,-73.68
1179,CORNING,NY,42.14,-77.05
1180,LAURINBURG,NC,34.76,-79.47
1181,GOLDSBORO,NC,35.37,-77.97
1182,RUTHERFORDTON,NC,35.36,-81.96
1183,SALISBURY,NC,35.66,-80.48
1184,STATESVILLE,NC,35.78,-80.88
1185,JACKSONVILLE,NC,34.76,-77.4
1186,NORTH WILKESBOR,NC,36.16,-81.14
1187,MORGANTON,NC,35.74,-81.69
1188,SMITHFIELD,NC,35.5,-78.34
1189,ELKIN,NC,36.25,-80.84
1190,AHOSKIE,NC,36.28,-76.98
1191,TARBORO,NC,35.9,-77.55
1192,ALBEMARLE,NC,35.36,-80.19
1193,MOORESVILLE,NC,35.57,-80.81
1194,MONROE,NC,34.98,-80.54
1195,MOREHEAD CITY,NC,34.72,-76.73
1196,ROANOKE RAPIDS,NC,36.45,-77.65
1197,SUPPLY,NC,34.01,-78.26
1198,MATTHEWS,NC,35.12,-80.71
1199,HUNTERSVILLE,NC,35.41,-80.84
1200,CLYDE,NC,35.53,-82.91
1201,XENIA,OH,39.68,-83.94
1202,WOOSTER,OH,40.81,-81.93
1203,SYLVANIA,OH,41.71,-83.7
1204,OREGON,OH,41.66,-83.41
1205,SPRINGFIELD,OH,39.92,-83.79
1206,BELLEVUE,OH,41.27,-82.84
1207,HAMILTON,OH,39.39,-84.56
1208,WARRENSVILLE HE,OH,41.47,-81.5
1209,WEST CHESTER,OH,39.33,-84.4
1210,BARTLESVILLE,OK,36.73,-95.94
1211,ARDMORE,OK,34.19,-97.11
1212,MIDWEST CITY,OK,35.46,-97.51
1213,SHAWNEE,OK,35.33,-96.91
1214,GRESHAM,OR,45.5,-122.43
1215,KLAMATH FALLS,OR,42.31,-122.07
1216,SALEM,OR,44.9,-122.92
1217,TUALATIN,OR,45.36,-122.75
1218,WASHINGTON,PA,40.17,-80.24
1219,CLEARFIELD,PA,41.02,-78.43
1220,SENECA,PA,41.37,-79.7
1221,MEADOWBROOK,PA,40.09,-75.12
1222,POTTSTOWN,PA,40.25,-75.64
1223,MONONGAHELA,PA,40.19,-79.92
1224,HAZLETON,PA,40.95,-75.97
1225,DOYLESTOWN,PA,40.31,-75.12
1226,SHARON,PA,41.23,-80.49
1227,HANOVER,PA,39.81,-76.98
1228,NEWPORT,RI,41.47,-71.3
1229,HARTSVILLE,SC,34.36,-80.08
1230,LANCASTER,SC,34.72,-80.77
1231,ABERDEEN,SD,45.46,-98.48
1232,DYERSBURG,TN,36.03,-89.38
1233,PARIS,TN,36.3,-88.3
1234,LEBANON,TN,36.2,-86.32
1235,SEGUIN,TX,29.57,-97.96
1236,MISSION,TX,26.21,-98.31
1237,GREENVILLE,TX,33.11,-96.1
1238,BAYTOWN,TX,29.74,-94.96
1239,SHERMAN,TX,33.61,-96.6
1240,LEWISVILLE,TX,33.04,-96.98
1241,TOMBALL,TX,30.09,-95.61
1242,NASSAU BAY,TX,29.76,-95.38
1243,ROWLETT,TX,32.9,-96.55
1244,PALESTINE,TX,31.75,-95.64
1245,KATY,TX,29.79,-95.82
1246,BOUNTIFUL,UT,40.88,-111.82
1247,BARRE,VT,44.2,-72.5
1248,RUTLAND,VT,43.6,-72.97
1249,HALIFAX,VA,36.76,-78.93
1250,PORTSMOUTH,VA,36.83,-76.29
1251,WARRENTON,VA,38.71,-77.79
1252,NASSAWADOX,VA,37.47,-75.86
1253,LEESBURG,VA,39.1,-77.55
1254,ABINGDON,VA,36.7,-81.96
1255,EMPORIA,VA,36.69,-77.53
1256,SOUTH HILL,VA,36.72,-78.12
1257,MIDLOTHIAN,VA,37.48,-77.65
1258,MOUNT VERNON,WA,48.36,-121.98
1259,BURIEN,WA,47.44,-122.35
1260,CENTRALIA,WA,46.74,-122.95
1261,EDMONDS,WA,47.83,-122.32
1262,ABERDEEN,WA,46.88,-123.99
1263,PORT ANGELES,WA,47.99,-123.25
1264,PUYALLUP,WA,47.22,-122.27
1265,ISSAQUAH,WA,47.55,-122
1266,RONCEVERTE,WV,37.74,-80.47
1267,PRINCETON,WV,37.36,-81.1
1268,MEQUON,WI,43.23,-87.98
1269,NEENAH,WI,44.16,-88.47
1270,OSHKOSH,WI,44.01,-88.55
1271,OCONOMOWOC,WI,43.1,-88.49
1272,MARINETTE,WI,45.08,-87.62
1273,GRAFTON,WI,43.31,-87.95
1274,VALLEY,AL,32.8,-85.17
1275,ANDALUSIA,AL,31.3,-86.48
1276,FAYETTE,AL,33.69,-87.83
1277,ENTERPRISE,AL,31.32,-85.84
1278,SCOTTSBORO,AL,34.64,-86.04
1279,ALEXANDER CITY,AL,32.92,-85.93
1280,ATHENS,AL,34.78,-86.95
1281,FOLEY,AL,30.4,-87.68
1282,JASPER,AL,33.85,-87.27
1283,TALLADEGA,AL,33.43,-86.09
1284,PRATTVILLE,AL,32.46,-86.44
1285,HALEYVILLE,AL,34.23,-87.61
1286,EVERGREEN,AL,31.43,-86.95
1287,RUSSELLVILLE,AL,34.5,-87.72
1288,SYLACAUGA,AL,33.17,-86.26
1289,PALMER,AK,61.6,-148.46
1290,SOLDOTNA,AK,60.32,-150.79
1291,KINGMAN,AZ,35.24,-114.01
1292,ORO VALLEY,AZ,32.46,-110.97
1293,PRESCOTT VALLEY,AZ,34.66,-112.29
1294,SILOAM SPRINGS,AR,36.18,-94.54
1295,CLARKSVILLE,AR,35.45,-93.47
1296,DANVILLE,AR,35.05,-93.39
1297,HARRISON,AR,36.24,-93.11
1298,WEST MEMPHIS,AR,35.14,-90.18
1299,MONTICELLO,AR,33.62,-91.79
1300,MAGNOLIA,AR,33.27,-93.23
1301,STUTTGART,AR,34.49,-91.55
1302,MALVERN,AR,34.37,-92.81
1303,BENTON,AR,34.56,-92.57
1304,HELENA,AR,34.52,-90.6
1305,HOPE,AR,33.66,-93.59
1306,ARROYO GRANDE,CA,35.16,-120.43
1307,OROVILLE,CA,39.45,-121.39
1308,RED BLUFF,CA,40.13,-122.43
1309,BANNING,CA,33.92,-116.83
1310,SONOMA,CA,38.24,-122.46
1311,LOMPOC,CA,34.6,-120.39
1312,MANTECA,CA,37.83,-121.18
1313,WOODLAND,CA,38.71,-121.85
1314,PETALUMA,CA,38.23,-122.56
1315,FONTANA,CA,34.08,-117.46
1316,TURLOCK,CA,37.53,-120.84
1317,ALAMEDA,CA,37.77,-122.27
1318,SIMI VALLEY,CA,34.25,-118.78
1319,REDLANDS,CA,34,-117.12
1320,JOSHUA TREE,CA,34.15,-116.27
1321,ALHAMBRA,CA,34.09,-118.13
1322,TRACY,CA,37.73,-121.42
1323,BRAWLEY,CA,33.02,-115.45
1324,MONTEBELLO,CA,34,-118.1
1325,TULARE,CA,36.18,-119.36
1326,FAIRFIELD,CA,38.28,-122
1327,FOLSOM,CA,38.67,-121.14
1328,CLOVIS,CA,36.93,-119.56
1329,INDIO,CA,33.71,-116.23
1330,MADERA,CA,36.91,-120.19
1331,CHINO,CA,33.98,-117.65
1332,TEMPLETON,CA,35.54,-120.75
1333,PANORAMA CITY,CA,34.22,-118.44
1334,CULVER CITY,CA,33.99,-118.39
1335,BRIGHTON,CO,39.95,-104.79
1336,MONTROSE,CO,38.49,-107.87
1337,DURANGO,CO,37.27,-107.88
1338,CANON CITY,CO,38.44,-105.23
1339,THORNTON,CO,39.76,-104.87
1340,LAFAYETTE,CO,39.99,-105.09
1341,SHARON,CT,41.87,-73.47
1342,TORRINGTON,CT,41.83,-73.12
1343,ROCKVILLE,CT,41.84,-72.45
1344,MILFORD,CT,41.22,-73.06
1345,CLERMONT,FL,28.55,-81.75
1346,TARPON SPRINGS,FL,28.14,-82.78
1347,LAKE WALES,FL,27.9,-81.58
1348,JACKSONVILLE BE,FL,30.29,-81.39
1349,BARTOW,FL,27.89,-81.84
1350,PLANT CITY,FL,28.01,-82.14
1351,MARIANNA,FL,30.77,-85.23
1352,LAKE CITY,FL,30.19,-82.64
1353,ARCADIA,FL,27.21,-81.85
1354,CORAL GABLES,FL,25.77,-80.2
1355,DADE CITY,FL,28.36,-82.19
1356,SEBASTIAN,FL,27.78,-80.48
1357,OKEECHOBEE,FL,27.24,-80.82
1358,GULF BREEZE,FL,30.36,-87.17
1359,THOMASTON,GA,32.89,-84.32
1360,WAYCROSS,GA,31.21,-82.35
1361,CANTON,GA,34.24,-84.49
1362,TOCCOA,GA,34.57,-83.32
1363,DEMOREST,GA,34.56,-83.54
1364,AMERICUS,GA,32.06,-84.26
1365,MONROE,GA,33.79,-83.71
1366,BLAIRSVILLE,GA,34.87,-83.95
1367,DOUGLAS,GA,31.5,-82.85
1368,JESUP,GA,31.59,-81.88
1369,VIDALIA,GA,32.21,-82.4
1370,BAINBRIDGE,GA,30.8,-84.5
1371,LITHONIA,GA,33.71,-84.1
1372,JOHNS CREEK,GA,34,-84.15
1373,DIXON,IL,41.84,-89.47
1374,STREATOR,IL,41.12,-88.83
1375,GALESBURG,IL,40.95,-90.37
1376,MACOMB,IL,40.47,-90.68
1377,MORRIS,IL,41.36,-88.42
1378,OTTAWA,IL,41.35,-88.83
1379,GRANITE CITY,IL,38.71,-90.12
1380,LAKE FOREST,IL,42.23,-87.85
1381,FREEPORT,IL,42.29,-89.63
1382,DEKALB,IL,41.89,-88.75
1383,MARYVILLE,IL,38.72,-89.96
1384,FRANKLIN,IN,39.49,-86.05
1385,MARION,IN,40.54,-85.66
1386,NEW CASTLE,IN,39.92,-85.36
1387,GREENFIELD,IN,39.79,-85.77
1388,CONNERSVILLE,IN,39.65,-85.14
1389,SEYMOUR,IN,38.95,-85.88
1390,BLUFFTON,IN,40.74,-85.17
1391,PLYMOUTH,IN,41.34,-86.31
1392,LAWRENCEBURG,IN,39.1,-84.86
1393,SHELBYVILLE,IN,39.52,-85.77
1394,WARSAW,IN,41.23,-85.85
1395,MARSHALLTOWN,IA,42.03,-92.91
1396,KEOKUK,IA,40.4,-91.4
1397,NEWTON,IA,41.69,-93.04
1398,MANHATTAN,KS,39.19,-96.59
1399,PRESTONSBURG,KY,37.67,-82.76
1400,GLASGOW,KY,36.99,-85.92
1401,MIDDLESBORO,KY,36.61,-83.72
1402,PINEVILLE,KY,36.76,-83.7
1403,HENDERSON,KY,37.83,-87.58
1404,LEITCHFIELD,KY,37.48,-86.29
1405,MAYFIELD,KY,36.73,-88.64
1406,NEW IBERIA,LA,30,-91.81
1407,NATCHITOCHES,LA,31.75,-93.09
1408,SULPHUR,LA,30.22,-93.35
1409,MORGAN CITY,LA,29.7,-91.19
1410,ZACHARY,LA,30.66,-91.15
1411,BASTROP,LA,32.77,-91.9
1412,MINDEN,LA,32.61,-93.28
1413,BRUNSWICK,ME,43.91,-69.96
1414,CARIBOU,ME,46.86,-67.99
1415,ELLSWORTH,ME,44.58,-68.49
1416,FORT KENT,ME,47.26,-68.57
1417,LAUREL,MD,39.09,-76.85
1418,NORTHAMPTON,MA,42.32,-72.67
1419,PALMER,MA,42.16,-72.32
1420,MARLBOROUGH,MA,42.34,-71.54
1421,NORTH ADAMS,MA,42.68,-73.11
1422,QUINCY,MA,42.26,-71
1423,ADRIAN,MI,41.89,-84.04
1424,COLDWATER,MI,41.94,-85
1425,ALMA,MI,43.37,-84.65
1426,HILLSDALE,MI,41.92,-84.63
1427,HASTINGS,MI,42.65,-85.28
1428,IRON MOUNTAIN,MI,45.82,-88.06
1429,GRAYLING,MI,44.65,-84.7
1430,HOWELL,MI,42.6,-83.93
1431,MOUNT PLEASANT,MI,43.59,-84.77
1432,CADILLAC,MI,44.24,-85.41
1433,BIG RAPIDS,MI,43.7,-85.48
1434,ESCANABA,MI,45.74,-87.08
1435,HANCOCK,MI,47.13,-88.6
1436,LUDINGTON,MI,43.95,-86.44
1437,GRAND HAVEN,MI,43.05,-86.22
1438,CLARE,MI,43.82,-84.76
1439,CARSON CITY,MI,43.17,-84.84
1440,EAST CHINA,MI,42.77,-82.53
1441,CHELSEA,MI,42.31,-84.02
1442,CAMBRIDGE,MN,45.56,-93.22
1443,HIBBING,MN,47.4,-92.94
1444,ALBERT LEA,MN,43.65,-93.36
1445,WINONA,MN,44.04,-91.65
1446,WYOMING,MN,45.33,-92.99
1447,FERGUS FALLS,MN,46.28,-96.06
1448,WACONIA,MN,44.84,-93.79
1449,GRAND RAPIDS,MN,47.22,-93.52
1450,VIRGINIA,MN,47.51,-92.5
1451,WILLMAR,MN,45.12,-95.04
1452,DETROIT LAKES,MN,46.81,-95.84
1453,BURNSVILLE,MN,44.76,-93.27
1454,WOODBURY,MN,44.94,-93.1
1455,RIPLEY,MS,34.72,-88.94
1456,GRENADA,MS,33.77,-89.81
1457,EUPORA,MS,33.54,-89.27
1458,AMORY,MS,33.98,-88.48
1459,LOUISVILLE,MS,33.12,-89.05
1460,MAGNOLIA,MS,31.15,-90.46
1461,STARKVILLE,MS,33.45,-88.82
1462,BROOKHAVEN,MS,31.58,-90.44
1463,CLEVELAND,MS,33.74,-90.72
1464,BRANDON,MS,32.28,-90
1465,MCCOMB,MS,31.24,-90.46
1466,KENNETT,MO,36.24,-90.04
1467,HOUSTON,MO,37.32,-91.95
1468,WASHINGTON,MO,38.55,-91.01
1469,LEBANON,MO,37.67,-92.66
1470,SIKESTON,MO,36.88,-89.58
1471,FARMINGTON,MO,37.78,-90.42
1472,MARSHALL,MO,39.11,-93.2
1473,BOLIVAR,MO,37.6,-93.41
1474,BOZEMAN,MT,45.77,-110.93
1475,NORTH PLATTE,NE,41.13,-100.77
1476,FREMONT,NE,41.44,-96.49
1477,BELLEVUE,NE,41.15,-95.92
1478,SPARKS,NV,39.53,-119.41
1479,ROCHESTER,NH,43.3,-70.97
1480,KEENE,NH,42.95,-72.29
1481,HACKETTSTOWN,NJ,40.85,-74.82
1482,LAS VEGAS,NM,35.59,-105.22
1483,ALAMOGORDO,NM,32.88,-105.95
1484,TAOS,NM,36.38,-105.57
1485,CLOVIS,NM,34.41,-103.2
1486,ARTESIA,NM,32.84,-104.43
1487,RHINEBECK,NY,41.92,-73.9
1488,GENEVA,NY,42.86,-76.98
1489,NIAGARA FALLS,NY,43.09,-79.01
1490,MALONE,NY,44.84,-74.29
1491,PORT JERVIS,NY,41.37,-74.69
1492,POTSDAM,NY,44.66,-74.98
1493,OGDENSBURG,NY,44.7,-75.47
1494,HARRIS,NY,41.71,-74.72
1495,SPRUCE PINE,NC,35.91,-82.06
1496,SYLVA,NC,35.37,-83.22
1497,CLINTON,NC,35,-78.33
1498,LOUISBURG,NC,36.1,-78.29
1499,KINGS MOUNTAIN,NC,35.24,-81.34
1500,LENOIR,NC,35.9,-81.53
1501,VALDESE,NC,35.74,-81.55
1502,EDEN,NC,36.5,-79.74
1503,THOMASVILLE,NC,35.88,-80.07
1504,LEXINGTON,NC,35.8,-80.25
1505,KENANSVILLE,NC,34.96,-77.96
1506,HENDERSON,NC,36.32,-78.41
1507,WILLIAMSTON,NC,35.85,-77.05
1508,LINCOLNTON,NC,35.47,-81.24
1509,WASHINGTON,NC,35.55,-77.05
1510,DOVER,OH,40.52,-81.47
1511,MARION,OH,40.58,-83.12
1512,RICHMOND HEIGHT,OH,41.47,-81.67
1513,MEDINA,OH,41.13,-81.86
1514,EAST LIVERPOOL,OH,40.63,-80.56
1515,MASSILLON,OH,40.78,-81.52
1516,FREMONT,OH,41.35,-83.11
1517,WILMINGTON,OH,39.44,-83.83
1518,SALEM,OH,40.9,-80.85
1519,CAMBRIDGE,OH,40.02,-81.58
1520,BATAVIA,OH,39.07,-84.18
1521,MIAMISBURG,OH,39.63,-84.27
1522,DEFIANCE,OH,41.28,-84.36
1523,WOODWARD,OK,36.42,-99.4
1524,PONCA CITY,OK,36.72,-97.06
1525,ADA,OK,34.77,-96.66
1526,ALTUS,OK,34.65,-99.28
1527,DUNCAN,OK,34.52,-97.96
1528,MCALESTER,OK,34.92,-95.76
1529,STILLWATER,OK,36.13,-97.07
1530,GROVE,OK,36.59,-94.78
1531,HILLSBORO,OR,45.44,-122.96
1532,ALBANY,OR,44.62,-123.13
1533,OREGON CITY,OR,45.32,-122.52
1534,REDMOND,OR,44.26,-121.22
1535,ONTARIO,OR,44.08,-117.01
1536,NEW CASTLE,PA,40.99,-80.34
1537,PALMERTON,PA,40.8,-75.61
1538,QUAKERTOWN,PA,40.43,-75.34
1539,SEWICKLEY,PA,40.53,-80.18
1540,SOMERSET,PA,40,-79.07
1541,UNIONTOWN,PA,39.89,-79.72
1542,WELLSBORO,PA,41.74,-77.3
1543,LEWISTOWN,PA,40.59,-77.57
1544,GETTYSBURG,PA,39.83,-77.23
1545,BRISTOL,PA,40.1,-74.85
1546,COATESVILLE,PA,39.98,-75.81
1547,CLARION,PA,41.21,-79.38
1548,MEADVILLE,PA,41.64,-80.14
1549,HONESDALE,PA,41.57,-75.25
1550,PHOENIXVILLE,PA,40.13,-75.51
1551,WAYNESBORO,PA,39.75,-77.58
1552,WARREN,PA,41.84,-79.14
1553,SAINT MARYS,PA,41.42,-78.55
1554,GREENVILLE,PA,41.4,-80.38
1555,LATROBE,PA,40.31,-79.38
1556,WAKEFIELD,RI,41.45,-71.51
1557,WOONSOCKET,RI,41.99,-71.5
1558,DILLON,SC,34.42,-79.36
1559,GEORGETOWN,SC,33.36,-79.29
1560,WALTERBORO,SC,32.9,-80.67
1561,CLINTON,SC,34.47,-81.86
1562,UNION,SC,34.72,-81.62
1563,GAFFNEY,SC,35.07,-81.65
1564,CAMDEN,SC,34.26,-80.61
1565,NEWBERRY,SC,34.27,-81.61
1566,MULLINS,SC,34.2,-79.25
1567,CHERAW,SC,34.69,-79.89
1568,HARDEEVILLE,SC,32.27,-81.07
1569,LORIS,SC,34.05,-78.89
1570,WATERTOWN,SD,44.91,-97.16
1571,PIERRE,SD,44.37,-100.32
1572,CROSSVILLE,TN,35.95,-85.03
1573,ELIZABETHTON,TN,36.33,-82.23
1574,PULASKI,TN,35.19,-87.03
1575,GREENEVILLE,TN,36.16,-82.81
1576,HARRIMAN,TN,35.93,-84.56
1577,DICKSON,TN,36.07,-87.37
1578,JEFFERSON CITY,TN,36.11,-83.48
1579,WINCHESTER,TN,35.18,-86.1
1580,MARTIN,TN,36.34,-88.85
1581,SEVIERVILLE,TN,35.89,-83.57
1582,FAYETTEVILLE,TN,35.14,-86.56
1583,LENOIR CITY,TN,35.8,-84.27
1584,UNION CITY,TN,36.42,-89.05
1585,LAWRENCEBURG,TN,35.24,-87.33
1586,CLEVELAND,TN,35.17,-84.86
1587,SPARTA,TN,35.93,-85.47
1588,HENDERSONVILLE,TN,36.29,-86.6
1589,LAKE JACKSON,TX,29.04,-95.44
1590,GAINESVILLE,TX,33.63,-97.15
1591,KINGSVILLE,TX,27.5,-97.86
1592,UVALDE,TX,29.21,-99.78
1593,KAUFMAN,TX,32.58,-96.3
1594,COLLEGE STATION,TX,30.6,-96.31
1595,RICHMOND,TX,29.58,-95.76
1596,WAXAHACHIE,TX,32.4,-96.85
1597,CORSICANA,TX,32.08,-96.46
1598,NACOGDOCHES,TX,31.61,-94.65
1599,RICHARDSON,TX,32.97,-96.7
1600,CROCKETT,TX,31.31,-95.45
1601,BROWNWOOD,TX,31.72,-98.97
1602,GRANBURY,TX,32.44,-97.78
1603,CARROLLTON,TX,32.98,-96.89
1604,FRISCO,TX,33.14,-96.81
1605,PRICE,UT,39.57,-110.8
1606,LAYTON,UT,41.07,-111.98
1607,BRATTLEBORO,VT,42.86,-72.57
1608,BENNINGTON,VT,42.87,-73.18
1609,HOPEWELL,VA,37.29,-77.29
1610,MARION,VA,36.83,-81.51
1611,RICHLANDS,VA,37.09,-81.8
1612,TAPPAHANNOCK,VA,37.92,-76.86
1613,BEDFORD,VA,37.32,-79.52
1614,FARMVILLE,VA,37.29,-78.39
1615,FRANKLIN,VA,36.68,-76.93
1616,WYTHEVILLE,VA,36.95,-81.08
1617,WOODBRIDGE,VA,38.63,-77.26
1618,GALAX,VA,36.66,-80.91
1619,PULASKI,VA,37.05,-80.76
1620,KILMARNOCK,VA,37.71,-76.38
1621,GLOUCESTER,VA,37.43,-76.54
1622,STAFFORD,VA,38.42,-77.4
1623,ANACORTES,WA,48.46,-122.6
1624,LAKEWOOD,WA,47.16,-122.5
1625,KENNEWICK,WA,46.21,-119.16
1626,GIG HARBOR,WA,47.36,-122.6
1627,RIPLEY,WV,38.82,-81.7
1628,ELKINS,WV,38.92,-79.85
1629,LOGAN,WV,37.84,-81.98
1630,STEVENS POINT,WI,44.54,-89.56
1631,RICE LAKE,WI,45.49,-91.73
1632,RHINELANDER,WI,45.63,-89.41
1633,MONROE,WI,42.59,-89.64
1634,WISCONSIN RAPID,WI,44.39,-89.83
1635,TWO RIVERS,WI,44.2,-87.59
1636,SHEBOYGAN,WI,43.82,-87.75
1637,WEST BEND,WI,43.42,-88.18
1638,FORT ATKINSON,WI,42.92,-88.84
1639,BEAVER DAM,WI,43.46,-88.83
1640,FOND DU LAC,WI,43.77,-88.44
1641,WOODRUFF,WI,45.9,-89.69
1642,PRAIRIE DU SAC,WI,43.29,-89.72
1643,BELOIT,WI,42.52,-89.02
1644,ELKHORN,WI,42.67,-88.54
1645,MANITOWOC,WI,44.09,-87.67
1646,WESTON,WI,44.91,-89.61
1647,SUMMIT,WI,43.1,-88.49
1648,KYLE,TX,29.99,-97.87
1649,OPP,AL,31.29,-86.25
1650,WINFIELD,AL,33.92,-87.79
1651,BREWTON,AL,31.11,-87.07
1652,MONROEVILLE,AL,31.51,-87.32
1653,MUSCLE SHOALS,AL,34.74,-87.64
1654,ATMORE,AL,31.02,-87.49
1655,FORT MOHAVE,AZ,35,-114.56
1656,POCAHONTAS,AR,36.26,-90.96
1657,SHERWOOD,AR,34.83,-92.2
1658,DELTA,CO,38.74,-108.07
1659,PUTNAM,CT,41.91,-71.9
1660,NEW MILFORD,CT,41.58,-73.4
1661,MILTON,FL,30.63,-87.04
1662,MIRAMAR,FL,26.02,-80.16
1663,SPRING VALLEY,IL,41.32,-89.19
1664,PERU,IL,41.34,-89.12
1665,LOGANSPORT,IN,40.75,-86.35
1666,FORT MADISON,IA,40.61,-91.35
1667,PARSONS,KS,37.33,-95.26
1668,MAYSVILLE,KY,38.62,-83.78
1669,FLEMINGSBURG,KY,38.42,-83.73
1670,LEESVILLE,LA,31.13,-93.27
1671,FARMINGTON,ME,44.66,-70.14
1672,SANFORD,ME,43.44,-70.78
1673,AYER,MA,42.56,-71.58
1674,GREENVILLE,MI,43.17,-85.25
1675,TAWAS CITY,MI,44.27,-83.51
1676,ALEXANDRIA,MN,45.87,-95.37
1677,SHAKOPEE,MN,44.77,-93.47
1678,AUSTIN,MN,43.67,-92.97
1679,BILOXI,MS,30.39,-88.88
1680,WEST POINT,MS,33.6,-88.64
1681,PICAYUNE,MS,30.52,-89.67
1682,MEXICO,MO,39.16,-91.87
1683,BLUE SPRINGS,MO,39.01,-94.28
1684,COLUMBUS,NE,41.43,-97.35
1685,AMSTERDAM,NY,42.94,-74.19
1686,LEWISTON,NY,43.17,-79.04
1687,MOUNT AIRY,NC,36.5,-80.61
1688,HAMLET,NC,34.88,-79.7
1689,SIDNEY,OH,40.28,-84.16
1690,BOWLING GREEN,OH,41.37,-83.64
1691,COLDWATER,OH,40.48,-84.63
1692,CUYAHOGA FALLS,OH,41.16,-81.52
1693,MIAMI,OK,36.88,-94.87
1694,BLACKWELL,OK,36.8,-97.29
1695,YUKON,OK,35.51,-97.76
1696,THE DALLES,OR,45.41,-122.49
1697,MCMINNVILLE,OR,45.19,-123.24
1698,LEHIGHTON,PA,40.83,-75.71
1699,WEST GROVE,PA,39.82,-75.82
1700,WESTERLY,RI,41.37,-71.81
1701,MANNING,SC,33.69,-80.21
1702,MOUNT PLEASANT,SC,32.82,-79.86
1703,MITCHELL,SD,43.73,-98.03
1704,GALLATIN,TN,36.37,-86.45
1705,SWEETWATER,TN,35.6,-84.46
1706,JOURDANTON,TX,28.91,-98.54
1707,SAN MARCOS,TX,29.88,-97.92
1708,LIVINGSTON,TX,30.7,-94.93
1709,PLAINVIEW,TX,34.19,-101.72
1710,BIG SPRING,TX,32.24,-101.47
1711,CEDAR CITY,UT,37.66,-113.19
1712,LOGAN,UT,41.85,-111.7
1713,POINT PLEASANT,WV,38.85,-82.13
1714,WEIRTON,WV,40.4,-80.56
1715,BURLINGTON,WI,42.67,-88.27
1716,FLOWER MOUND,TX,33.02,-97.09
1717,FORT PAYNE,AL,34.45,-85.69
1718,EUFAULA,AL,31.9,-85.15
1719,DEMOPOLIS,AL,32.5,-87.83
1720,PAYSON,AZ,34.19,-111.17
1721,SIERRA VISTA,AZ,31.59,-110.17
1722,BARSTOW,CA,34.97,-116.99
1723,SUN VALLEY,CA,34.23,-118.34
1724,FALLBROOK,CA,33.39,-117.29
1725,SAN DIMAS,CA,34.1,-117.81
1726,SUN CITY,CA,33.74,-117.18
1727,NORWALK,CA,33.9,-118.07
1728,ALAMOSA,CO,37.46,-105.87
1729,LA JUNTA,CO,37.98,-103.54
1730,FITZGERALD,GA,31.7,-83.25
1731,JERSEYVILLE,IL,39.11,-90.32
1732,WASHINGTON,IN,38.65,-87.17
1733,CARMEL,IN,39.96,-86.1
1734,MOREHEAD,KY,38.19,-83.44
1735,HARLAN,KY,36.84,-83.32
1736,GEORGETOWN,KY,38.2,-84.55
1737,TOMPKINSVILLE,KY,36.7,-85.69
1738,LOUISA,KY,38.1,-82.6
1739,JACKSON,KY,37.55,-83.37
1740,CROWLEY,LA,30.21,-92.37
1741,FORT WASHINGTON,MD,38.73,-77
1742,SOUTHBRIDGE,MA,42.08,-72.03
1743,FAIRMONT,MN,43.64,-94.45
1744,NEW ALBANY,MS,34.49,-89.02
1745,HAYTI,MO,36.23,-89.74
1746,MOBERLY,MO,39.41,-92.43
1747,CLINTON,MO,38.37,-93.76
1748,PAPILLION,NE,41.15,-96.04
1749,FALLON,NV,39.5,-118.29
1750,SECAUCUS,NJ,40.78,-74.06
1751,HOBBS,NM,32.73,-103.16
1752,NEWARK,NY,43.04,-77.09
1753,MEDINA,NY,43.21,-78.38
1754,BATAVIA,NY,42.99,-78.18
1755,OLEAN,NY,42.08,-78.43
1756,CORTLAND,NY,42.6,-76.18
1757,ROME,NY,43.21,-75.47
1758,OSWEGO,NY,43.45,-76.5
1759,MASSENA,NY,44.92,-74.89
1760,LONG BEACH,NY,40.58,-73.65
1761,GLOVERSVILLE,NY,43.05,-74.34
1762,TIFFIN,OH,41.11,-83.17
1763,COSHOCTON,OH,40.26,-81.84
1764,CLAREMORE,OK,36.31,-95.61
1765,POTEAU,OK,35.04,-94.63
1766,CUSHING,OK,35.97,-96.76
1767,PURCELL,OK,35.01,-97.37
1768,STILWELL,OK,35.81,-94.63
1769,LOCK HAVEN,PA,41.13,-77.45
1770,BERWICK,PA,41.05,-76.24
1771,TUNKHANNOCK,PA,41.53,-75.94
1772,PAWTUCKET,RI,41.87,-71.37
1773,CHESTER,SC,34.7,-81.21
1774,BROWNSVILLE,TN,35.59,-89.25
1775,MC KENZIE,TN,36.13,-88.51
1776,LIVINGSTON,TN,36.38,-85.32
1777,MARSHALL,TX,32.53,-94.35
1778,EAGLE PASS,TX,28.7,-100.49
1779,CLARKSVILLE,TX,33.61,-95.05
1780,WEATHERFORD,TX,32.75,-97.77
1781,CARTHAGE,TX,32.15,-94.33
1782,STEPHENVILLE,TX,32.21,-98.21
1783,MESQUITE,TX,32.76,-96.59
1784,ENNIS,TX,32.33,-96.62
1785,SAINT ALBANS,VT,44.81,-73.08
1786,NORTON,VA,36.93,-82.62
1787,ROCKY MOUNT,VA,36.99,-79.89
1788,PORTAGE,WI,43.54,-89.46
1789,FRANKLIN,WI,42.88,-88
1790,GARDNER,MA,42.58,-71.98
1791,CANTON,MS,32.61,-90.03
1792,KILLEEN,TX,31.09,-97.71
1793,WEDOWEE,AL,33.3,-85.48
1794,HOLLYWOOD,CA,34.1,-118.32
1795,GLENDORA,CA,34.11,-117.85
1796,LA PALMA,CA,33.85,-118.04
1797,NORTH PROVIDENC,RI,41.82,-71.41
1798,NEWPORT,TN,35.96,-83.19
1799,GREENPORT,NY,41.1,-72.36
1800,RIDGECREST,CA,35.55,-117.67
1801,HOMESTEAD,FL,25.46,-80.45
1802,CALDWELL,ID,43.66,-116.63
1803,PRESQUE ISLE,ME,46.68,-67.98
1804,WEST BRANCH,MI,44.27,-84.23
1805,ASHLAND,OH,40.86,-82.31
1806,DUBLIN,OH,40.11,-83.13
1807,COALDALE,PA,40.82,-75.91
1808,SMYRNA,TN,35.98,-86.51
1809,PAYSON,UT,40.01,-111.73
1810,AMERICAN FORK,UT,40.39,-111.78
1811,RIVERTON,UT,40.47,-112
1812,LARAMIE,WY,41.31,-105.58
1813,OZARK,AL,31.43,-85.64
1814,TALLASSEE,AL,32.53,-85.89
1815,MOULTON,AL,34.48,-87.28
1816,GENEVA,AL,31.03,-85.87
1817,BLYTHEVILLE,AR,35.93,-89.92
1818,NEWPORT,AR,35.62,-91.23
1819,NOVATO,CA,38.13,-122.56
1820,HUNTINGTON BEAC,CA,33.72,-118
1821,HAWAIIAN GARDEN,CA,33.83,-118.07
1822,STAFFORD SPRING,CT,41.95,-72.3
1823,WALLINGFORD,CT,41.44,-72.81
1824,ENGLEWOOD,FL,26.95,-82.35
1825,ELBERTON,GA,34.1,-82.86
1826,LAVONIA,GA,34.43,-83.1
1827,COMMERCE,GA,34.2,-83.46
1828,CHATSWORTH,GA,34.77,-84.77
1829,BAXLEY,GA,31.76,-82.35
1830,SANDERSVILLE,GA,32.98,-82.81
1831,SWAINSBORO,GA,32.59,-82.33
1832,MILLEDGEVILLE,GA,33.08,-83.23
1833,PERRY,GA,32.46,-83.73
1834,EWA BEACH,HI,21.31,-158.01
1835,NAMPA,ID,43.49,-116.61
1836,BETTENDORF,IA,41.56,-90.47
1837,OTTAWA,KS,38.6,-95.26
1838,SHELBYVILLE,KY,38.21,-85.23
1839,LEBANON,KY,37.56,-85.25
1840,BARDSTOWN,KY,37.81,-85.46
1841,MANCHESTER,KY,37.15,-83.76
1842,RICHMOND,KY,37.74,-84.29
1843,MOUNT STERLING,KY,38.06,-83.94
1844,CYNTHIANA,KY,38.38,-84.29
1845,CAMPBELLSVILLE,KY,37.34,-85.34
1846,WINCHESTER,KY,37.99,-84.18
1847,LA GRANGE,KY,38.4,-85.37
1848,SPRINGHILL,LA,33,-93.46
1849,WINNSBORO,LA,32.16,-91.72
1850,NEEDHAM,MA,42.28,-71.24
1851,HAVERHILL,MA,42.78,-71.08
1852,FREMONT,MI,43.46,-85.95
1853,SAULT SAINTE MA,MI,46.48,-84.36
1854,WAYNESBORO,MS,31.67,-88.64
1855,BAY SAINT LOUIS,MS,30.32,-89.51
1856,WARRENSBURG,MO,38.75,-93.72
1857,WARWICK,NY,41.25,-74.35
1858,DANSVILLE,NY,42.56,-77.69
1859,OXFORD,NC,36.31,-78.58
1860,MURPHY,NC,35.09,-84.02
1861,ATHENS,OH,39.32,-82.09
1862,MOUNT VERNON,OH,40.39,-82.47
1863,OXFORD,OH,39.5,-84.74
1864,ALLIANCE,OH,40.91,-81.11
1865,CIRCLEVILLE,OH,39.6,-82.93
1866,WADSWORTH,OH,41.02,-81.73
1867,BELLEFONTAINE,OH,40.36,-83.75
1868,ELK CITY,OK,35.4,-99.41
1869,VINITA,OK,36.64,-95.15
1870,BRADFORD,PA,41.96,-78.64
1871,TITUSVILLE,PA,41.62,-79.67
1872,CANONSBURG,PA,40.26,-80.18
1873,MOUNT PLEASANT,PA,40.15,-79.54
1874,EASLEY,SC,34.82,-82.58
1875,GREER,SC,34.93,-82.23
1876,SIMPSONVILLE,SC,34.73,-82.25
1877,ERWIN,TN,36.14,-82.41
1878,LA FOLLETTE,TN,36.37,-84.12
1879,ETOWAH,TN,35.33,-84.52
1880,SPRINGFIELD,TN,36.49,-86.87
1881,SAVANNAH,TN,35.22,-88.23
1882,MC MINNVILLE,TN,35.68,-85.77
1883,CLEBURNE,TX,32.34,-97.4
1884,JACKSONVILLE,TX,31.96,-95.26
1885,WHITNEY,TX,31.94,-97.32
1886,HENDERSON,TX,32.15,-94.79
1887,ARANSAS PASS,TX,27.9,-97.14
1888,RIO GRANDE CITY,TX,26.37,-98.82
1889,GILMER,TX,32.73,-94.94
1890,SANDY,UT,40.56,-111.86
1891,WEST JORDAN,UT,40.58,-111.98
1892,PENNINGTON GAP,VA,36.75,-83.02
1893,CULPEPER,VA,38.47,-78
1894,BIG STONE GAP,VA,36.86,-82.77
1895,FAIRMONT,WV,39.48,-80.14
1896,BLUEFIELD,WV,37.26,-81.21
1897,HURRICANE,WV,38.43,-82.01
1898,WATERTOWN,WI,43.19,-88.72
1899,CEDAR PARK,TX,30.51,-97.83
1900,ROCKWALL,TX,32.92,-96.45
1901,JACKSONVILLE,AR,34.86,-92.12
1902,DELANO,CA,35.78,-119.23
1903,EASTMAN,GA,32.19,-83.17
1904,JASPER,GA,34.46,-84.42
1905,OLNEY,IL,38.73,-88.08
1906,HARRISBURG,IL,37.73,-88.54
1907,EMPORIA,KS,38.41,-96.19
1908,ELKHART,KS,37,-101.89
1909,RUSSELLVILLE,KY,36.83,-86.89
1910,ALBANY,KY,36.69,-85.13
1911,MOUNT VERNON,KY,37.36,-84.34
1912,COLUMBIA,KY,37.09,-85.3
1913,MAMOU,LA,30.63,-92.41
1914,DERIDDER,LA,30.77,-93.24
1915,HOMER,LA,32.79,-93.05
1916,JENA,LA,31.68,-92.12
1917,THREE RIVERS,MI,41.94,-85.63
1918,MAPLE GROVE,MN,45.11,-93.39
1919,IUKA,MS,34.8,-88.19
1920,CAMERON,MO,39.74,-94.23
1921,NORTH LAS VEGAS,NV,36.21,-115.12
1922,SILVER CITY,NM,32.78,-108.26
1923,NORWICH,NY,42.53,-75.52
1924,ONEONTA,NY,42.45,-75.06
1925,SPRINGVILLE,NY,42.5,-78.67
1926,CLIFTON SPRINGS,NY,42.95,-77.13
1927,MARION,NC,35.68,-82
1928,MILLERSBURG,OH,40.55,-81.91
1929,DELAWARE,OH,40.29,-83.08
1930,HUGO,OK,34.01,-95.51
1931,MILWAUKIE,OR,45.44,-122.61
1932,BROOKINGS,SD,44.3,-96.78
1933,JASPER,TN,35.05,-85.62
1934,PARSONS,TN,35.65,-88.12
1935,CELINA,TN,36.54,-85.5
1936,SMITHVILLE,TN,35.95,-85.82
1937,CARTHAGE,TN,36.25,-85.94
1938,SWEETWATER,TX,32.46,-100.4
1939,MOUNT PLEASANT,TX,33.16,-94.97
1940,BRENHAM,TX,30.15,-96.39
1941,HILLSBORO,TX,32,-97.11
1942,HUNTSVILLE,TX,30.71,-95.54
1943,MEXIA,TX,31.67,-96.48
1944,BOWIE,TX,33.55,-97.84
1945,SEYMOUR,TX,33.59,-99.25
1946,CUERO,TX,29.09,-97.28
1947,HAMILTON,TX,31.7,-98.12
1948,ALLEN,TX,33.1,-96.66
1949,GRUNDY,VA,37.27,-82.1
1950,WESTON,WV,39.04,-80.46
1951,SUMMERSVILLE,WV,38.28,-80.84
1952,BARABOO,WI,43.46,-89.74
1953,DADEVILLE,AL,32.83,-85.76
1954,ARCATA,CA,40.85,-124.05
1955,HUNTINGTON PARK,CA,33.97,-118.21
1956,CORONADO,CA,32.65,-117.14
1957,HARBOR CITY,CA,33.79,-118.29
1958,LOUISVILLE,CO,39.96,-105.14
1959,FERNANDINA BEAC,FL,30.65,-81.44
1960,FORT OGLETHORPE,GA,34.92,-85.25
1961,VILLA RICA,GA,33.73,-84.92
1962,DALLAS,GA,33.91,-84.83
1963,WINDER,GA,33.99,-83.72
1964,SMYRNA,GA,33.86,-84.51
1965,BREESE,IL,38.61,-89.52
1966,MARTINSVILLE,IN,39.42,-86.42
1967,MOORESVILLE,IN,39.61,-86.37
1968,KENDALLVILLE,IN,41.44,-85.25
1969,FORT SCOTT,KS,37.83,-94.7
1970,MARION,KY,37.33,-88.07
1971,FRANKFORT,KY,38.19,-84.86
1972,BOGALUSA,LA,30.78,-89.86
1973,GONZALES,LA,30.21,-90.92
1974,KENNER,LA,29.99,-90.24
1975,WARE,MA,42.25,-72.24
1976,OWOSSO,MI,42.99,-84.17
1977,BUFFALO,MN,45.17,-93.86
1978,PRINCETON,MN,45.57,-93.59
1979,LUCEDALE,MS,30.92,-88.59
1980,BOONEVILLE,MS,34.66,-88.56
1981,KIRKSVILLE,MO,40.19,-92.57
1982,SULLIVAN,MO,38.21,-91.16
1983,BELTON,MO,38.81,-94.53
1984,O FALLON,MO,38.78,-90.7
1985,WARSAW,NY,42.74,-78.14
1986,SARANAC LAKE,NY,44.32,-74.13
1987,WELLSVILLE,NY,42.12,-77.94
1988,ONEIDA,NY,43.08,-75.65
1989,HORNELL,NY,42.32,-77.66
1990,WADESBORO,NC,34.96,-80.06
1991,ROXBORO,NC,36.4,-78.98
1992,SAINT MARYS,OH,40.54,-84.39
1993,VAN WERT,OH,40.86,-84.58
1994,MARYSVILLE,OH,40.23,-83.37
1995,GEORGETOWN,OH,38.86,-83.9
1996,CHICKASHA,OK,35.04,-97.95
1997,NEWBERG,OR,45.32,-122.98
1998,EVERETT,PA,40.01,-78.36
1999,TOWANDA,PA,41.76,-76.44
2000,ROGERSVILLE,TN,36.4,-83
2001,JELLICO,TN,36.57,-84.12
2002,PAMPA,TX,35.54,-100.96
2003,AZLE,TX,32.89,-97.53
2004,BAY CITY,TX,28.97,-95.96
2005,LEBANON,VA,36.89,-82.07
2006,TAZEWELL,VA,37.12,-81.51
2007,MOSES LAKE,WA,47.19,-119.3
2008,WILLIAMSON,WV,37.67,-82.27
2009,GILLETTE,WY,44.28,-105.51
2010,LA GRANGE,TX,29.9,-96.87
2011,LUVERNE,AL,31.7,-86.26
2012,CENTRE,AL,34.15,-85.67
2013,HAMILTON,AL,34.14,-87.98
2014,ONEONTA,AL,33.95,-86.47
2015,GROVE HILL,AL,31.7,-87.77
2016,CARROLLTON,AL,33.26,-88.09
2017,TROY,AL,31.8,-85.96
2018,BAY MINETTE,AL,30.88,-87.77
2019,PELL CITY,AL,33.56,-86.27
2020,JACKSONVILLE,AL,33.81,-85.76
2021,SAN TAN VALLEY,AZ,33.17,-111.57
2022,MENA,AR,34.58,-94.23
2023,VAN BUREN,AR,35.44,-94.35
2024,FORREST CITY,AR,35.01,-90.78
2025,OAKDALE,CA,37.8,-120.74
2026,HOLLISTER,CA,36.89,-121.24
2027,LOS BANOS,CA,36.9,-121.02
2028,BELLFLOWER,CA,33.88,-118.13
2029,DAVIS,CA,38.48,-121.64
2030,SOUTH EL MONTE,CA,34.04,-118.04
2031,MONTCLAIR,CA,34.07,-117.7
2032,NICEVILLE,FL,30.53,-86.48
2033,DEFUNIAK SPRING,FL,30.74,-86.19
2034,PERRY,FL,30.1,-83.58
2035,ADEL,GA,31.13,-83.42
2036,NASHVILLE,GA,31.2,-83.24
2037,HAWKINSVILLE,GA,32.28,-83.47
2038,CLAXTON,GA,32.16,-81.9
2039,SAINT MARYS,GA,30.75,-81.57
2040,DAHLONEGA,GA,34.53,-83.98
2041,BLUE RIDGE,GA,34.86,-84.32
2042,ELLIJAY,GA,34.69,-84.48
2043,CANTON,IL,40.56,-90.04
2044,SHELBYVILLE,IL,39.4,-88.8
2045,WATSEKA,IL,40.77,-87.73
2046,CRAWFORDSVILLE,IN,40.04,-86.89
2047,HUNTINGTON,IN,40.88,-85.5
2048,COLUMBIA CITY,IN,41.15,-85.48
2049,KNOX,IN,41.29,-86.62
2050,CLARKSVILLE,IN,38.31,-85.76
2051,MUSCATINE,IA,41.41,-91.07
2052,GRINNELL,IA,41.74,-92.72
2053,LEAVENWORTH,KS,39.32,-94.92
2054,EL DORADO,KS,37.82,-96.85
2055,BURLINGTON,KS,38.19,-95.74
2056,DODGE CITY,KS,37.75,-100.01
2057,GREENVILLE,KY,37.2,-87.17
2058,PARIS,KY,38.2,-84.26
2059,SOUTH WILLIAMSO,KY,37.66,-82.29
2060,MARKSVILLE,LA,31.12,-92.06
2061,OAKDALE,LA,30.81,-92.65
2062,MANSFIELD,LA,32.03,-93.7
2063,RAYVILLE,LA,32.47,-91.75
2064,COLUMBIA,LA,32.1,-92.07
2065,WATERVILLE,ME,44.56,-69.55
2066,OAKLAND,MD,39.41,-79.41
2067,SOUTH HAVEN,MI,42.4,-86.27
2068,STURGIS,MI,41.8,-85.42
2069,BAD AXE,MI,43.8,-82.99
2070,OWATONNA,MN,44.08,-93.22
2071,HOUSTON,MS,33.89,-89
2072,KOSCIUSKO,MS,33.05,-89.58
2073,WATER VALLEY,MS,34.16,-89.63
2074,INDIANOLA,MS,33.44,-90.64
2075,SENATOBIA,MS,34.61,-89.97
2076,BUTLER,MO,38.25,-94.33
2077,DEXTER,MO,36.79,-89.96
2078,FULTON,MO,38.85,-91.95
2079,ELKO,NV,40.95,-115.79
2080,SUSSEX,NJ,41.2,-74.6
2081,PORTALES,NM,34.18,-103.34
2082,BROCKPORT,NY,43.21,-77.94
2083,BATH,NY,42.33,-77.31
2084,GOUVERNEUR,NY,44.33,-75.46
2085,DUNKIRK,NY,42.47,-79.33
2086,HAMILTON,NY,42.82,-75.54
2087,CARTHAGE,NY,43.98,-75.6
2088,GREENVILLE,OH,40.1,-84.62
2089,BRYAN,OH,41.47,-84.54
2090,PRYOR,OK,36.3,-95.32
2091,CLINTON,OK,35.5,-98.97
2092,HOLLIS,OK,34.68,-99.91
2093,IDABEL,OK,33.9,-94.81
2094,OKMULGEE,OK,35.63,-95.95
2095,SALLISAW,OK,35.46,-94.8
2096,HOBART,OK,35.02,-99.09
2097,OWASSO,OK,36.28,-95.83
2098,HUNTINGDON,PA,40.49,-78.01
2099,LITITZ,PA,40.15,-76.3
2100,SUNBURY,PA,40.86,-76.78
2101,CARBONDALE,PA,41.57,-75.5
2102,KANE,PA,41.66,-78.8
2103,HASTINGS,PA,40.66,-78.7
2104,WAYNESBURG,PA,39.89,-80.18
2105,MCKEES ROCKS,PA,40.46,-80.06
2106,LEXINGTON,TN,35.65,-88.39
2107,WAYNESBORO,TN,35.32,-87.75
2108,TRENTON,TN,35.97,-88.93
2109,SELMER,TN,35.17,-88.59
2110,TAZEWELL,TN,36.45,-83.57
2111,ATHENS,TN,35.45,-84.6
2112,COVINGTON,TN,35.56,-89.64
2113,ORANGE,TX,30.1,-93.75
2114,CLIFTON,TX,31.78,-97.58
2115,BEEVILLE,TX,28.4,-97.74
2116,GRAHAM,TX,33.1,-98.57
2117,SMITHVILLE,TX,30,-97.15
2118,DEL RIO,TX,29.37,-100.89
2119,FORT STOCKTON,TX,30.89,-102.88
2120,LLANO,TX,30.75,-98.67
2121,DUMAS,TX,35.86,-101.96
2122,JACKSBORO,TX,33.22,-98.15
2123,GRAND SALINE,TX,32.67,-95.71
2124,CLEVELAND,TX,30.34,-95.07
2125,BROWNFIELD,TX,33.17,-102.27
2126,EASTLAND,TX,32.4,-98.81
2127,WEIMAR,TX,29.7,-96.77
2128,GLEN ROSE,TX,32.23,-97.75
2129,WOODVILLE,TX,30.77,-94.42
2130,BRECKENRIDGE,TX,32.75,-98.91
2131,MINERAL WELLS,TX,32.82,-98.07
2132,JASPER,TX,30.92,-93.99
2133,ANGLETON,TX,29.16,-95.42
2134,NOCONA,TX,33.78,-97.73
2135,TERRELL,TX,32.73,-96.29
2136,CAMERON,TX,30.85,-96.97
2137,CENTER,TX,31.79,-94.17
2138,TOOELE,UT,40.57,-112.33
2139,FRONT ROYAL,VA,38.92,-78.18
2140,ARLINGTON,WA,48.18,-121.67
2141,BUCKHANNON,WV,38.98,-80.22
2142,CHIPPEWA FALLS,WI,44.93,-91.39
2143,HARTFORD,WI,43.32,-88.38
2144,MAUSTON,WI,43.8,-90.08
2145,SHERIDAN,WY,44.79,-106.95
2146,RIVERTON,WY,43.03,-108.41
2147,LANDER,WY,42.83,-108.72
2148,ASHLAND,AL,33.27,-85.83
2149,JACKSON,AL,31.53,-87.89
2150,GREENVILLE,AL,31.82,-86.62
2151,BETHEL,AK,60.93,-161.8
2152,SAFFORD,AZ,32.7,-109.65
2153,BLYTHE,CA,33.75,-114.51
2154,GLENWOOD SPRING,CO,39.54,-107.33
2155,BELLE GLADE,FL,26.68,-80.67
2156,PORT SAINT JOE,FL,29.83,-85.24
2157,KEALAKEKUA,HI,19.54,-155.88
2158,PONTIAC,IL,40.87,-88.64
2159,LEBANON,IN,40.05,-86.47
2160,SPENCER,IA,43.14,-95.15
2161,OAK GROVE,LA,32.86,-91.39
2162,WINNFIELD,LA,31.92,-92.64
2163,LAKE PROVIDENCE,LA,32.81,-91.18
2164,CRISFIELD,MD,37.98,-75.85
2165,CLINTON,MA,42.41,-71.68
2166,ZEELAND,MI,42.81,-86.01
2167,WATERVLIET,MI,42.18,-86.25
2168,FARIBAULT,MN,44.29,-93.27
2169,PHILADELPHIA,MS,32.77,-89.1
2170,COLUMBIA,MS,31.25,-89.82
2171,CREVE COEUR,MO,38.63,-90.24
2172,ESPANOLA,NM,36,-106.06
2173,DEMING,NM,32.26,-107.75
2174,GOWANDA,NY,42.46,-78.93
2175,LOWVILLE,NY,43.78,-75.48
2176,BEAVER CREEK,OH,39.77,-84.19
2177,FREDERICK,OK,34.38,-99.01
2178,BROKEN ARROW,OK,36.03,-95.78
2179,CONNELLSVILLE,PA,40.01,-79.58
2180,PUNXSUTAWNEY,PA,40.94,-78.97
2181,GROVE CITY,PA,41.15,-80.08
2182,BARNWELL,SC,33.24,-81.36
2183,BENNETTSVILLE,SC,34.63,-79.68
2184,LAKE CITY,SC,33.86,-79.75
2185,HUNTINGDON,TN,36,-88.41
2186,LINDEN,TN,35.61,-87.84
2187,ANSON,TX,32.75,-99.89
2188,MOUNT VERNON,TX,33.17,-95.22
2189,LEVELLAND,TX,33.57,-102.36
2190,TOPPENISH,WA,46.28,-120.25
2191,MONROE,WA,47.87,-121.88
2192,NEW MARTINSVILL,WV,39.66,-80.85
2193,GEORGIANA,AL,31.63,-86.74
2194,EUTAW,AL,32.84,-87.89
2195,UNION SPRINGS,AL,32.13,-85.71
2196,PHENIX CITY,AL,32.46,-85.01
2197,REEDLEY,CA,36.65,-119.4
2198,CORCORAN,CA,36.07,-119.53
2199,COLUSA,CA,39.27,-122.05
2200,PLACENTIA,CA,33.88,-117.85
2201,FORT MORGAN,CO,40.26,-103.79
2202,STERLING,CO,40.62,-103.19
2203,WILLISTON,FL,29.37,-82.45
2204,OCILLA,GA,31.59,-83.24
2205,DONALSONVILLE,GA,31.04,-84.87
2206,AUBURN,IN,41.36,-85.05
2207,CHARLESTOWN,IN,38.45,-85.66
2208,CARROLL,IA,42.06,-94.86
2209,SPIRIT LAKE,IA,43.42,-95.11
2210,LIBERAL,KS,37.04,-100.93
2211,MCPHERSON,KS,38.36,-97.66
2212,GREAT BEND,KS,38.36,-98.8
2213,ABBEVILLE,LA,29.97,-92.12
2214,MANY,LA,31.56,-93.47
2215,GAYLORD,MI,45.02,-84.67
2216,NORTHFIELD,MN,44.45,-93.16
2217,HASTINGS,MN,44.73,-92.85
2218,HUTCHINSON,MN,44.88,-94.37
2219,HOLLY SPRINGS,MS,34.77,-89.44
2220,MAGEE,MS,31.87,-89.73
2221,BOONVILLE,MO,38.96,-92.74
2222,NEVADA,MO,37.84,-94.35
2223,DONIPHAN,MO,36.62,-90.82
2224,OSCEOLA,MO,38.04,-93.69
2225,BROWNING,MT,48.59,-113.27
2226,GALLUP,NM,35.52,-108.73
2227,SANTA ROSA,NM,34.94,-104.67
2228,COBLESKILL,NY,42.67,-74.48
2229,BELLAIRE,OH,40.01,-80.74
2230,LONDON,OH,39.88,-83.44
2231,EL RENO,OK,35.54,-97.96
2232,WILBURTON,OK,34.91,-95.3
2233,ANTLERS,OK,34.23,-95.61
2234,SAYRE,OK,35.29,-99.63
2235,PERRY,OK,36.28,-97.3
2236,PAULS VALLEY,OK,34.72,-97.22
2237,WAGONER,OK,35.95,-95.38
2238,TALIHINA,OK,34.75,-95.04
2239,HENRYETTA,OK,35.44,-95.98
2240,SEMINOLE,OK,35.23,-96.64
2241,BLOOMSBURG,PA,41,-76.45
2242,COAL TOWNSHIP,PA,40.78,-76.54
2243,PICKENS,SC,34.88,-82.7
2244,VARNVILLE,SC,32.85,-81.08
2245,FLORESVILLE,TX,29.13,-98.15
2246,GONZALES,TX,29.5,-97.44
2247,BELLVILLE,TX,29.94,-96.25
2248,STAMFORD,TX,33.02,-99.64
2249,CHILDRESS,TX,34.42,-100.24
2250,ATLANTA,TX,33.11,-94.16
2251,LITTLEFIELD,TX,33.91,-102.33
2252,TRINITY,TX,30.94,-95.37
2253,VERNAL,UT,40.55,-109.57
2254,WELCH,WV,37.43,-81.58
2255,ROCK SPRINGS,WY,41.59,-109.22
2256,BRIDGEPORT,TX,33.2,-97.75
2257,CLANTON,AL,32.84,-86.62
2258,SEBASTOPOL,CA,38.4,-122.86
2259,GARDEN CITY,KS,37.97,-100.86
2260,PRATT,KS,37.64,-98.73
2261,PARAMUS,NJ,40.94,-74.07
2262,SHIPROCK,NM,36.79,-108.69
2263,EUGENE,OR,44.06,-123.08
2264,ELLWOOD CITY,PA,40.86,-80.28
2265,MANCHESTER,TN,35.46,-86.08
2266,FAIRFIELD,TX,31.71,-96.16
2267,ELBA,AL,31.41,-86.07
2268,CENTREVILLE,AL,32.95,-87.13
2269,GREENSBORO,AL,32.7,-87.59
2270,WETUMPKA,AL,32.54,-86.2
2271,YORK,AL,32.49,-88.29
2272,JUNEAU,AK,58.58,-134.77
2273,PARKER,AZ,33.99,-114.23
2274,FORT DEFIANCE,AZ,35.77,-109.11
2275,TUBA CITY,AZ,36.09,-111.13
2276,CHINLE,AZ,36.23,-109.57
2277,WHITERIVER,AZ,33.8,-110.09
2278,SYLMAR,CA,34.32,-118.38
2279,OJAI,CA,34.51,-119.29
2280,SOUTH LAKE TAHO,CA,38.92,-119.96
2281,BALDWIN PARK,CA,34.09,-117.96
2282,STEAMBOAT SPRIN,CO,40.47,-106.82
2283,WEST HARTFORD,CT,41.75,-72.74
2284,JAY,FL,30.95,-87.15
2285,HARTWELL,GA,34.35,-82.93
2286,CAIRO,GA,30.87,-84.2
2287,MONTEZUMA,GA,32.29,-84.02
2288,KAMUELA,HI,20.04,-155.7
2289,REXBURG,ID,43.78,-111.76
2290,CENTREVILLE,IL,38.61,-90.13
2291,GREENVILLE,IL,38.88,-89.4
2292,CEDAR FALLS,IA,42.52,-92.45
2293,INDEPENDENCE,KS,37.23,-95.71
2294,WELLINGTON,KS,37.27,-97.39
2295,JUNCTION CITY,KS,39.02,-96.84
2296,ARKANSAS CITY,KS,37.06,-97.04
2297,FULTON,KY,36.51,-88.88
2298,LAPLACE,LA,30.12,-90.46
2299,RED WING,MN,44.58,-92.6
2300,WORTHINGTON,MN,43.62,-95.59
2301,STILLWATER,MN,45.05,-92.82
2302,WHITFIELD,MS,32.12,-90.13
2303,MARYVILLE,MO,40.34,-94.87
2304,HAVRE,MT,48.56,-109.73
2305,LOS ALAMOS,NM,35.89,-106.28
2306,SHATTUCK,OK,36.27,-99.87
2307,BRISTOW,OK,35.83,-96.39
2308,ALVA,OK,36.8,-98.66
2309,ASHLAND,OR,42.15,-122.53
2310,SILVERTON,OR,44.95,-122.71
2311,ROARING SPRING,PA,40.33,-78.39
2312,WINDBER,PA,40.23,-78.82
2313,ASHLAND,PA,40.78,-76.34
2314,SPEARFISH,SD,44.48,-103.84
2315,HUMBOLDT,TN,35.82,-88.9
2316,SOMERVILLE,TN,35.23,-89.35
2317,BOLIVAR,TN,35.26,-88.99
2318,WOODBURY,TN,35.82,-86.07
2319,SNYDER,TX,32.71,-100.91
2320,ANDREWS,TX,32.32,-102.54
2321,HEREFORD,TX,34.82,-102.39
2322,WHARTON,TX,29.31,-96.09
2323,COMANCHE,TX,31.89,-98.6
2324,MARLIN,TX,31.3,-96.89
2325,COLUMBUS,TX,29.7,-96.55
2326,LAMESA,TX,32.73,-101.95
2327,CANADIAN,TX,35.91,-100.38
2328,VERNON,TX,34.14,-99.3
2329,CARRIZO SPRINGS,TX,28.52,-99.85
2330,ROOSEVELT,UT,40.28,-110
2331,RICHFIELD,UT,38.75,-112.1
2332,BEAVER,UT,38.38,-112.66
2333,JACKSON,WY,43.47,-110.76
2334,EVANSTON,WY,41.25,-110.96
2335,COSTA MESA,CA,33.67,-117.9
2336,YERINGTON,NV,38.87,-119.14
2337,GUYMON,OK,36.68,-101.48
2338,ROSEBUD,SD,43.23,-100.83
2339,PEARSALL,TX,28.88,-99.09
2340,TREMONTON,UT,41.69,-112.27
2341,ROLLING FORK,MS,32.9,-90.87
2342,OREM,UT,40.31,-111.71
2343,LAKEWAY,TX,30.26,-97.74
2344,BEDFORD,OH,41.39,-81.53
2345,SAN MATEO,CA,37.54,-122.3
2346,LOUISVILLE,GA,32.99,-82.4
2347,LULING,LA,29.92,-90.36
2348,EL CAMPO,TX,29.19,-96.27
2349,COALINGA,CA,36.19,-120.39
2350,MOUNDRIDGE,KS,38.2,-97.51
2351,SITKA,AK,56.73,-135
2352,HARKER HEIGHTS,TX,31.06,-97.65
2353,DILLEY,TX,28.66,-99.17
2354,MILAN,TN,35.91,-88.75
2355,PINEVILLE,LA,31.33,-92.41
2356,FAYETTE,MS,31.71,-91.06
2357,NO LITTLE ROCK,AR,34.78,-92.25
2358,IRVINE,CA,33.67,-117.73
2359,VAIL,CO,39.64,-106.39
2360,FRISCO,CO,39.57,-106.09
2361,POST FALLS,ID,47.78,-117.02
2362,NEW ALBANY,OH,40.07,-82.8
2363,DAKOTA DUNES,SD,42.53,-96.5
2364,HURST,TX,32.83,-97.17
2365,SOUTHLAKE,TX,32.95,-97.14
2366,NORTH LOGAN,UT,41.85,-111.7
2367,GLENDALE,WI,43.06,-87.96
2368,BELLAIRE,TX,29.7,-95.46
2369,ADDISON,TX,32.96,-96.83
2370,WEST COVINA,CA,34.06,-117.94
2371,YUBA CITY,CA,39.05,-121.61
2372,VACAVILLE,CA,38.41,-122.01
2373,THOMSON,GA,33.46,-82.5
2374,PAOLA,KS,38.57,-94.86
2375,EDMOND,OK,35.67,-97.41
2376,CLACKAMAS,OR,45.41,-122.49
2377,TRANSFER,PA,41.32,-80.42
2378,WYOMISSING,PA,40.33,-75.92
2379,BENSALEM,PA,40.1,-74.93
2380,ROYERSFORD,PA,40.18,-75.53
2381,TROPHY CLUB,TX,33,-97.23
2382,BRIGHAM CITY,UT,41.51,-112.04
2383,PARK CITY,UT,40.64,-111.49
2384,MC KINNEY,TX,33.2,-96.65
2385,ZUNI,NM,35.08,-108.76
2386,ZION,IL,42.45,-87.84
2387,DARLINGTON,SC,34.29,-79.87
2388,KING CITY,CA,36.2,-120.94
2389,WAYNESBORO,GA,33.09,-82.01
2390,CROWNPOINT,NM,35.68,-108.14
2391,STAYTON,OR,44.81,-122.72
2392,SOUTH SAN FRANC,CA,37.65,-122.42
2393,SAN RAFAEL,CA,38.02,-122.54
2394,WOODLAND HILLS,CA,34.17,-118.61
2395,HAMLIN,TX,32.88,-100.12
2396,KILGORE,TX,32.38,-94.86
2397,BURKEVILLE,VA,37.18,-78.2
2398,CATAWBA,VA,37.38,-80.11
2399,CAMERON,LA,29.79,-93.29
2400,BRIGHTON,MI,42.53,-83.78
2401,EAGLEVILLE,PA,40.15,-75.4
